測站名稱,測站ID,縣市,鄉鎮,高度(m),緯度(WGS84),經度(WGS84),觀測時間,天氣狀況,氣溫(℃),相對濕度(%),氣壓(hPa),降雨量(mm),風速(m/s),風向(度),今日最高溫(℃),最高溫時間,今日最低溫(℃),最低溫時間
崇德,C0TB40,花蓮縣,秀林鄉,8.0,24.166144,121.657414,2026-07-02T10:00:00+08:00,晴,31.2,67,1010.2,0.0,2.8,173.0,31.2,2026-07-02T10:00:00+08:00,26.5,2026-07-02T02:10:00+08:00
富山,C0SD20,臺東縣,卑南鄉,21.0,22.822383,121.190825,2026-07-02T10:00:00+08:00,晴,30.8,72,1011.1,0.0,2.6,105.0,31.7,2026-07-02T07:30:00+08:00,24.9,2026-07-02T04:40:00+08:00
東清國小,C0SD30,臺東縣,蘭嶼鄉,18.0,22.057128,121.564922,2026-07-02T10:00:00+08:00,晴,29.9,80,1010.7,7.5,5.0,153.0,30.2,2026-07-02T09:00:00+08:00,27.2,2026-07-02T03:00:00+08:00
牛頭山,C0SD40,臺東縣,綠島鄉,76.0,22.676661,121.506944,2026-07-02T10:00:00+08:00,多雲,31.1,76,1005.0,0.0,4.2,134.0,31.5,2026-07-02T07:30:00+08:00,27.4,2026-07-02T00:50:00+08:00
磐石,C0TC00,花蓮縣,秀林鄉,1164.0,24.015008,121.395456,2026-07-02T10:00:00+08:00,晴,-99,-99,-99,-99,-99,-99,-99,-99,-99,-99
西林林道12.5K,C0TC10,花蓮縣,萬榮鄉,883.0,23.829641,121.412330,2026-07-02T10:00:00+08:00,晴,27.7,79,914.2,0.0,3.2,9.0,27.7,2026-07-02T10:00:00+08:00,20.9,2026-07-02T03:00:00+08:00
光復林道16K,C0TC20,花蓮縣,萬榮鄉,1035.0,23.667010,121.369490,2026-07-02T10:00:00+08:00,晴,25.9,81,897.7,0.0,1.9,5.0,26.3,2026-07-02T09:30:00+08:00,20.1,2026-07-02T05:20:00+08:00
虎頭山,C0TC30,花蓮縣,萬榮鄉,1136.0,23.528490,121.339920,2026-07-02T10:00:00+08:00,晴,26.1,78,888.5,0.0,1.3,20.0,26.1,2026-07-02T09:20:00+08:00,19.5,2026-07-02T04:30:00+08:00
新白楊,C0TC40,花蓮縣,秀林鄉,1625.0,24.198205,121.432960,2026-07-02T10:00:00+08:00,晴,-99,-99,-99,-99,-99,-99,-99,-99,-99,-99
龍泉苗圃,C0SD90,臺東縣,海端鄉,434.0,23.166640,121.180110,2026-07-02T10:00:00+08:00,晴,30.1,67,962.4,0.0,1.1,7.0,30.6,2026-07-02T09:20:00+08:00,21.9,2026-07-02T05:50:00+08:00
綠水,C0TC50,花蓮縣,秀林鄉,418.0,24.178416,121.507950,2026-07-02T10:00:00+08:00,晴,29.7,59,964.8,0.0,3.1,19.0,29.7,2026-07-02T10:00:00+08:00,21.9,2026-07-02T05:40:00+08:00
樟原南溪,C0SE00,臺東縣,長濱鄉,675.0,23.402300,121.423180,2026-07-02T10:00:00+08:00,晴,31.9,72,935.1,0.0,0.7,15.0,32.4,2026-07-02T09:30:00+08:00,22.8,2026-07-02T02:00:00+08:00
水社寮,C0M9H0,嘉義縣,竹崎鄉,1188.0,23.504180,120.660350,2026-07-02T10:00:00+08:00,多雲,-99,-99,-99,0.0,-99,-99,-99,-99,-99,-99
鹿林山,C0H9Z0,南投縣,信義鄉,2873.0,23.468688,120.873288,2026-07-02T10:00:00+08:00,晴,-99,-99,-99,-99,-99,-99,-99,-99,-99,-99
交力坪,C0M9J0,嘉義縣,竹崎鄉,1001.0,23.531680,120.643560,2026-07-02T10:00:00+08:00,多雲,25.8,81,901.4,0.0,0.5,10.0,26.5,2026-07-02T09:00:00+08:00,21.9,2026-07-02T05:00:00+08:00
二萬平,C0M9K0,嘉義縣,阿里山鄉,2011.0,23.508390,120.790110,2026-07-02T10:00:00+08:00,晴,22.6,73,802.9,0.0,1.1,26.0,23.2,2026-07-02T08:50:00+08:00,14.8,2026-07-02T00:50:00+08:00
天池,C0V930,高雄市,桃源區,2322.0,23.277780,120.915690,2026-07-02T10:00:00+08:00,晴,-99,-99,-99,0.0,-99,-99,25.4,2026-07-02T09:50:00+08:00,16.1,2026-07-02T04:10:00+08:00
奧萬大,C0HA10,南投縣,仁愛鄉,1253.0,23.952940,121.178470,2026-07-02T10:00:00+08:00,晴,-99,-99,-99,-99,-99,-99,-99,-99,-99,-99
杉林溪大飯店,C0HA20,南投縣,竹山鎮,1676.0,23.634270,120.791280,2026-07-02T10:00:00+08:00,晴,-99,-99,-99,0.0,-99,-99,23.6,2026-07-02T08:50:00+08:00,16.8,2026-07-02T06:00:00+08:00
美瓏山,C0V940,高雄市,桃源區,1387.0,23.119700,120.747310,2026-07-02T10:00:00+08:00,晴,25.9,68,862.5,0.0,0.7,25.0,27.3,2026-07-02T08:00:00+08:00,20.0,2026-07-02T01:20:00+08:00
五指寮林道3.5K,C0V950,高雄市,甲仙區,616.0,23.136775,120.640280,2026-07-02T10:00:00+08:00,晴,-99,-99,-99,-99,-99,-99,-99,-99,-99,-99
西阿里關山,C0V960,高雄市,甲仙區,976.0,23.183025,120.641430,2026-07-02T10:00:00+08:00,晴,26.0,84,904.9,0.0,0.2,0.0,27.4,2026-07-02T09:40:00+08:00,20.5,2026-07-02T04:50:00+08:00
上德文,C0R120,屏東縣,三地門鄉,835.0,22.763360,120.704580,2026-07-02T10:00:00+08:00,多雲,-99,-99,-99,-99,-99,-99,-99,-99,-99,-99
花菓,C0V970,高雄市,六龜區,1105.0,23.034775,120.684150,2026-07-02T10:00:00+08:00,-99,-99,-99,-99,-99,-99,-99,-99,-99,-99,-99
硬漢嶺,C0AK30,新北市,八里區,607.0,25.136097,121.426372,2026-07-02T10:00:00+08:00,晴,26.8,89,944.5,0.0,2.4,17.0,28.8,2026-07-02T06:30:00+08:00,25.2,2026-07-02T00:10:00+08:00
秀林,C0TA40,花蓮縣,秀林鄉,930.0,24.302864,121.731144,2026-07-02T10:00:00+08:00,晴,26.9,66,911.1,0.0,2.0,164.0,27.3,2026-07-02T08:40:00+08:00,22.8,2026-07-02T00:50:00+08:00
和仁,C0TA50,花蓮縣,秀林鄉,3.0,24.241394,121.712472,2026-07-02T10:00:00+08:00,晴,30.5,70,1009.7,0.0,5.5,207.0,31.1,2026-07-02T08:20:00+08:00,26.7,2026-07-02T03:00:00+08:00
立霧山,C0TA80,花蓮縣,秀林鄉,1108.0,24.183258,121.641899,2026-07-02T10:00:00+08:00,晴,26.4,76,893.2,0.0,1.0,5.0,26.4,2026-07-02T10:00:00+08:00,19.5,2026-07-02T04:40:00+08:00
鞍馬山工作站,C0FA60,臺中市,和平區,2137.0,24.267064,121.000793,2026-07-02T10:00:00+08:00,晴,21.5,68,784.9,0.0,1.1,27.0,21.5,2026-07-02T10:00:00+08:00,14.8,2026-07-02T06:40:00+08:00
大雪山埡口,C0FA70,臺中市,和平區,2591.0,24.268670,121.030620,2026-07-02T10:00:00+08:00,晴,-99,-99,-99,-99,-99,-99,-99,-99,-99,-99
小雪山天池,C0FA80,臺中市,和平區,2629.0,24.280250,121.026270,2026-07-02T10:00:00+08:00,晴,17.5,71,750.3,0.0,0.9,254.0,18.1,2026-07-02T09:00:00+08:00,13.7,2026-07-02T00:30:00+08:00
小雪山林道,C0FA90,臺中市,和平區,2940.0,24.295150,121.036510,2026-07-02T10:00:00+08:00,晴,19.4,60,720.5,0.0,1.5,174.0,19.4,2026-07-02T10:00:00+08:00,10.4,2026-07-02T06:00:00+08:00
大雪山,C0FB00,臺中市,和平區,2275.0,24.254668,121.007374,2026-07-02T10:00:00+08:00,晴,19.0,77,782.3,0.0,1.1,262.0,20.1,2026-07-02T07:20:00+08:00,16.7,2026-07-02T00:50:00+08:00
出雲山苗圃,C0FB10,臺中市,和平區,1034.0,24.231050,120.904750,2026-07-02T10:00:00+08:00,晴,25.4,89,904.1,0.0,1.5,350.0,25.4,2026-07-02T10:00:00+08:00,19.0,2026-07-02T03:30:00+08:00
雪山橋,C0FB20,臺中市,和平區,2006.0,24.231920,120.978600,2026-07-02T10:00:00+08:00,晴,-99,-99,806.6,0.0,0.9,205.0,18.8,2026-07-02T00:20:00+08:00,-99,-99
八仙山苗圃,C0FB30,臺中市,和平區,961.0,24.192719,121.001366,2026-07-02T10:00:00+08:00,晴,28.4,68,906.6,0.0,1.8,264.0,28.4,2026-07-02T10:00:00+08:00,20.4,2026-07-02T05:50:00+08:00
中橫21.6k,C0FB40,臺中市,和平區,1341.0,24.249900,121.145500,2026-07-02T10:00:00+08:00,晴,30.1,48,864.7,0.0,0.6,25.0,30.1,2026-07-02T10:00:00+08:00,19.0,2026-07-02T05:00:00+08:00
雪見,C0E940,苗栗縣,泰安鄉,1881.0,24.425950,121.013470,2026-07-02T10:00:00+08:00,晴,18.9,86,817.3,0.0,3.1,290.0,21.6,2026-07-02T07:40:00+08:00,17.4,2026-07-02T01:40:00+08:00
松安,C0E950,苗栗縣,泰安鄉,1328.0,24.397920,120.985990,2026-07-02T10:00:00+08:00,晴,27.0,76,868.3,0.0,0.7,254.0,27.0,2026-07-02T10:00:00+08:00,19.2,2026-07-02T01:50:00+08:00
觀霧分站,C0E960,苗栗縣,泰安鄉,2094.0,24.505781,121.113921,2026-07-02T10:00:00+08:00,晴,23.1,71,795.5,0.0,0.7,320.0,23.1,2026-07-02T10:00:00+08:00,16.6,2026-07-02T01:50:00+08:00
樂山林道6k,C0D750,新竹縣,五峰鄉,2292.0,24.499990,121.087730,2026-07-02T10:00:00+08:00,晴,20.2,82,769.4,0.0,0.9,288.0,20.8,2026-07-02T09:10:00+08:00,14.2,2026-07-02T01:40:00+08:00
大坪苗圃,C0D760,新竹縣,五峰鄉,1371.0,24.536200,121.110800,2026-07-02T10:00:00+08:00,晴,24.6,79,862.6,0.0,1.9,349.0,26.2,2026-07-02T07:50:00+08:00,19.6,2026-07-02T01:00:00+08:00
東眼山,C0C790,桃園市,復興區,858.0,24.828400,121.408880,2026-07-02T10:00:00+08:00,晴,25.7,94,915.6,0.0,0.9,213.0,26.2,2026-07-02T09:50:00+08:00,20.6,2026-07-02T03:40:00+08:00
四稜,C0C800,桃園市,復興區,1167.0,24.647330,121.429300,2026-07-02T10:00:00+08:00,晴,28.7,56,884.2,0.0,1.3,110.0,28.7,2026-07-02T10:00:00+08:00,19.9,2026-07-02T05:40:00+08:00
明池,C0UB60,宜蘭縣,大同鄉,1163.0,24.650688,121.475277,2026-07-02T10:00:00+08:00,晴,29.3,62,885.0,0.0,1.2,129.0,29.3,2026-07-02T10:00:00+08:00,17.7,2026-07-02T04:50:00+08:00
太平山中間站,C0UB70,宜蘭縣,大同鄉,890.0,24.542003,121.513453,2026-07-02T10:00:00+08:00,晴,29.4,59,914.0,0.0,1.0,290.0,30.4,2026-07-02T09:50:00+08:00,22.2,2026-07-02T04:40:00+08:00
翠峰林道6K,C0UB80,宜蘭縣,大同鄉,1981.0,24.497730,121.568625,2026-07-02T10:00:00+08:00,晴,23.9,69,804.0,0.0,0.7,239.0,23.9,2026-07-02T10:00:00+08:00,14.3,2026-07-02T01:40:00+08:00
太平山莊,C0UB90,宜蘭縣,大同鄉,1925.0,24.494171,121.536209,2026-07-02T10:00:00+08:00,晴,24.9,63,810.5,0.0,2.1,147.0,25.0,2026-07-02T09:30:00+08:00,16.2,2026-07-02T01:40:00+08:00
大樹,C0V910,高雄市,大樹區,50.0,22.684645,120.432803,2026-07-02T10:00:00+08:00,晴,32.4,66,1006.2,0.0,1.8,163.0,33.1,2026-07-02T09:50:00+08:00,26.9,2026-07-02T04:50:00+08:00
太平里,C0AK10,新北市,林口區,18.0,25.134937,121.364899,2026-07-02T10:00:00+08:00,晴,30.4,76,1008.8,0.0,1.8,306.0,30.4,2026-07-02T10:00:00+08:00,27.3,2026-07-02T04:30:00+08:00
美和,C0SB10,臺東縣,太麻里鄉,28.0,22.682078,121.060236,2026-07-02T10:00:00+08:00,多雲,31.0,72,1010.4,0.0,1.7,201.0,31.1,2026-07-02T07:40:00+08:00,26.4,2026-07-02T04:50:00+08:00
富岡,C0SB20,臺東縣,臺東市,29.0,22.792467,121.192669,2026-07-02T10:00:00+08:00,多雲,31.2,73,1009.0,0.0,1.5,141.0,31.3,2026-07-02T06:50:00+08:00,27.8,2026-07-02T04:40:00+08:00
新蘭,C0SB30,臺東縣,東河鄉,60.0,22.869214,121.223228,2026-07-02T10:00:00+08:00,晴,30.3,77,1006.4,0.0,1.6,158.0,32.3,2026-07-02T07:00:00+08:00,26.9,2026-07-02T04:00:00+08:00
興隆,C0SB40,臺東縣,東河鄉,65.0,22.913661,121.257469,2026-07-02T10:00:00+08:00,晴,30.9,71,1005.4,0.0,2.5,143.0,32.0,2026-07-02T07:20:00+08:00,26.4,2026-07-02T05:10:00+08:00
叭嗡嗡,C0SB50,臺東縣,成功鎮,7.0,23.047062,121.343223,2026-07-02T10:00:00+08:00,晴,29.8,81,1010.0,0.0,3.4,190.0,30.4,2026-07-02T06:50:00+08:00,26.6,2026-07-02T04:00:00+08:00
白守蓮,C0SB60,臺東縣,成功鎮,20.0,23.126769,121.401914,2026-07-02T10:00:00+08:00,晴,31.3,73,1010.5,0.0,1.8,161.0,31.8,2026-07-02T08:00:00+08:00,26.5,2026-07-02T05:00:00+08:00
小港漁港,C0SB70,臺東縣,成功鎮,28.0,23.158558,121.400431,2026-07-02T10:00:00+08:00,晴,31.3,72,1010.2,0.0,3.6,175.0,31.7,2026-07-02T08:50:00+08:00,26.1,2026-07-02T05:20:00+08:00
長濱漁港,C0SB80,臺東縣,長濱鄉,53.0,23.313644,121.459994,2026-07-02T10:00:00+08:00,晴,29.4,82,1007.7,0.0,2.9,233.0,30.3,2026-07-02T07:40:00+08:00,27.6,2026-07-02T04:00:00+08:00
花蓮漁港,C0TA10,花蓮縣,花蓮市,17.0,23.995322,121.638331,2026-07-02T10:00:00+08:00,晴,28.5,78,1009.7,0.0,5.4,182.0,28.6,2026-07-02T09:40:00+08:00,26.2,2026-07-02T05:20:00+08:00
加灣,C0TA20,花蓮縣,秀林鄉,45.0,24.082025,121.608944,2026-07-02T10:00:00+08:00,晴,31.7,66,1007.8,0.0,3.3,145.0,32.0,2026-07-02T09:00:00+08:00,25.3,2026-07-02T05:00:00+08:00
鹽寮,C0TA30,花蓮縣,壽豐鄉,11.0,23.845606,121.592664,2026-07-02T10:00:00+08:00,晴,30.6,74,1010.1,0.0,3.6,189.0,30.9,2026-07-02T07:40:00+08:00,26.0,2026-07-02T05:10:00+08:00
大甲溪埔,C0FB70,臺中市,大甲區,41.0,24.370625,120.620067,2026-07-02T10:00:00+08:00,多雲,30.4,76,1007.6,0.0,1.6,310.0,30.5,2026-07-02T09:50:00+08:00,26.7,2026-07-02T02:00:00+08:00
和美,C0G9B0,彰化縣,和美鎮,26.0,24.105169,120.492131,2026-07-02T10:00:00+08:00,晴,31.5,73,1008.4,0.0,2.5,327.0,31.6,2026-07-02T09:50:00+08:00,27.9,2026-07-02T04:00:00+08:00
鼻頭,C0R860,屏東縣,滿州鄉,31.0,22.104300,120.897883,2026-07-02T10:00:00+08:00,多雲,27.2,96,1009.9,22.5,2.6,16.0,27.6,2026-07-02T02:00:00+08:00,25.6,2026-07-02T05:10:00+08:00
興海,C0R870,屏東縣,滿州鄉,13.0,21.975177,120.843919,2026-07-02T10:00:00+08:00,多雲,29.2,86,1011.4,15.5,4.3,140.0,29.5,2026-07-02T09:50:00+08:00,26.4,2026-07-02T04:30:00+08:00
後壁湖,C0R880,屏東縣,恆春鎮,13.0,21.945666,120.745705,2026-07-02T10:00:00+08:00,多雲有雨,28.1,93,1010.7,2.0,7.6,102.0,29.5,2026-07-02T08:30:00+08:00,27.2,2026-07-02T04:50:00+08:00
山海,C0R890,屏東縣,恆春鎮,33.0,21.987777,120.709119,2026-07-02T10:00:00+08:00,多雲,28.7,83,1009.2,11.5,6.1,151.0,29.7,2026-07-02T09:40:00+08:00,26.4,2026-07-02T05:20:00+08:00
竹坑,C0R900,屏東縣,車城鄉,30.0,22.138450,120.702150,2026-07-02T10:00:00+08:00,多雲有雨,29.6,76,1010.8,3.0,4.7,147.0,29.9,2026-07-02T00:50:00+08:00,28.0,2026-07-02T05:40:00+08:00
加祿堂,C0R940,屏東縣,枋山鄉,24.0,22.336306,120.621722,2026-07-02T10:00:00+08:00,陰,33.0,54,1009.0,0.0,3.9,141.0,33.0,2026-07-02T10:00:00+08:00,27.1,2026-07-02T04:00:00+08:00
鯤鯓國小,C0N010,臺南市,將軍區,19.0,23.187875,120.088900,2026-07-02T10:00:00+08:00,晴,31.0,78,1009.8,0.0,1.8,279.0,32.0,2026-07-02T08:30:00+08:00,27.9,2026-07-02T04:00:00+08:00
下寮,C0R910,屏東縣,枋寮鄉,8.0,22.392861,120.554780,2026-07-02T10:00:00+08:00,多雲,30.1,80,1010.3,0.0,8.7,176.0,32.7,2026-07-02T08:00:00+08:00,27.5,2026-07-02T04:40:00+08:00
塭仔,C0R920,屏東縣,佳冬鄉,19.0,22.416933,120.519661,2026-07-02T10:00:00+08:00,多雲,30.2,64,1009.5,0.0,8.5,168.0,31.7,2026-07-02T08:50:00+08:00,26.5,2026-07-02T05:20:00+08:00
汕尾,C0V900,高雄市,林園區,6.0,22.478205,120.415136,2026-07-02T10:00:00+08:00,多雲,29.8,81,1010.3,0.0,8.4,165.0,31.4,2026-07-02T08:20:00+08:00,27.2,2026-07-02T05:40:00+08:00
鳳鼻頭,C0V840,高雄市,小港區,35.0,22.508275,120.359141,2026-07-02T10:00:00+08:00,多雲,31.3,74,1009.3,0.0,1.7,320.0,32.1,2026-07-02T08:00:00+08:00,27.9,2026-07-02T05:00:00+08:00
蚵仔寮,C0V850,高雄市,梓官區,22.0,22.725647,120.252675,2026-07-02T10:00:00+08:00,晴,29.9,76,1010.0,0.0,2.9,235.0,30.5,2026-07-02T07:00:00+08:00,27.3,2026-07-02T05:30:00+08:00
南寮,C0V860,高雄市,彌陀區,10.0,22.761616,120.233925,2026-07-02T10:00:00+08:00,晴,29.9,83,1011.3,0.0,2.4,265.0,30.3,2026-07-02T09:40:00+08:00,27.8,2026-07-02T05:30:00+08:00
文安,C0V870,高雄市,彌陀區,23.0,22.802525,120.216369,2026-07-02T10:00:00+08:00,晴,30.9,80,1011.0,0.0,2.2,247.0,31.3,2026-07-02T07:20:00+08:00,28.3,2026-07-02T05:00:00+08:00
興達,C0V880,高雄市,茄萣區,19.0,22.877755,120.212747,2026-07-02T10:00:00+08:00,晴,30.8,75,1010.8,0.0,1.9,243.0,31.3,2026-07-02T07:50:00+08:00,27.5,2026-07-02T05:00:00+08:00
城西,C0N020,臺南市,安南區,27.0,23.056805,120.095569,2026-07-02T10:00:00+08:00,晴,31.7,72,1009.4,0.0,1.5,279.0,31.7,2026-07-02T08:10:00+08:00,27.7,2026-07-02T03:50:00+08:00
四草,C0N030,臺南市,安南區,2.0,23.023541,120.111633,2026-07-02T10:00:00+08:00,晴,31.0,68,1010.9,0.0,1.8,228.0,31.1,2026-07-02T09:50:00+08:00,27.7,2026-07-02T04:00:00+08:00
蘆竹溝,C0N040,臺南市,北門區,22.0,23.234405,120.096125,2026-07-02T10:00:00+08:00,晴,30.1,81,1010.0,0.0,2.4,342.0,31.5,2026-07-02T08:30:00+08:00,28.3,2026-07-02T03:40:00+08:00
蚵寮,C0N050,臺南市,北門區,37.0,23.300997,120.110375,2026-07-02T10:00:00+08:00,晴,31.1,81,1009.2,0.0,1.7,339.0,31.7,2026-07-02T08:50:00+08:00,28.4,2026-07-02T04:50:00+08:00
前鎮,C0V890,高雄市,前鎮區,25.0,22.572152,120.311191,2026-07-02T10:00:00+08:00,晴,31.1,71,1009.6,0.0,5.0,164.0,31.3,2026-07-02T08:10:00+08:00,28.7,2026-07-02T04:20:00+08:00
澳底,C0AJ90,新北市,貢寮區,23.0,25.055192,121.925264,2026-07-02T10:00:00+08:00,多雲,29.4,80,1008.5,0.0,2.7,50.0,29.8,2026-07-02T09:30:00+08:00,25.7,2026-07-02T04:10:00+08:00
七美,C0W180,澎湖縣,七美鄉,29.0,23.219333,119.444892,2026-07-02T10:00:00+08:00,多雲,30.4,84,1007.4,0.0,1.4,56.0,30.4,2026-07-02T10:00:00+08:00,26.3,2026-07-02T05:30:00+08:00
望安,C0W190,澎湖縣,望安鄉,52.0,23.380564,119.494075,2026-07-02T10:00:00+08:00,晴,29.6,82,1005.6,0.0,3.3,79.0,29.8,2026-07-02T08:30:00+08:00,25.8,2026-07-02T05:30:00+08:00
湖西,C0W200,澎湖縣,湖西鄉,18.0,23.596314,119.672750,2026-07-02T10:00:00+08:00,多雲,29.8,86,1010.3,0.0,2.6,26.0,29.9,2026-07-02T08:40:00+08:00,26.2,2026-07-02T02:20:00+08:00
北竿,C0W220,連江縣,北竿鄉,40.0,26.220358,119.974881,2026-07-02T10:00:00+08:00,晴,31.3,66,1005.6,0.0,2.8,165.0,31.3,2026-07-02T10:00:00+08:00,27.4,2026-07-02T04:50:00+08:00
九宮,C0W240,金門縣,烈嶼鄉,52.0,24.423753,118.240186,2026-07-02T10:00:00+08:00,晴,31.0,70,1006.6,0.0,2.4,218.0,31.8,2026-07-02T09:00:00+08:00,28.0,2026-07-02T03:00:00+08:00
萬隆國小,C0R950,屏東縣,新埤鄉,51.0,22.507667,120.587817,2026-07-02T10:00:00+08:00,多雲,32.3,65,1004.6,0.0,1.5,244.0,33.4,2026-07-02T09:40:00+08:00,26.3,2026-07-02T04:40:00+08:00
白沙屯,C0E570,苗栗縣,通霄鎮,31.0,24.549447,120.696803,2026-07-02T10:00:00+08:00,陰,29.3,87,1010.1,0.0,3.1,324.0,29.7,2026-07-02T06:40:00+08:00,27.3,2026-07-02T05:20:00+08:00
內埔,C0R960,屏東縣,內埔鄉,58.0,22.608483,120.570714,2026-07-02T10:00:00+08:00,多雲,33.4,59,1006.6,0.0,1.2,337.0,33.7,2026-07-02T09:50:00+08:00,26.2,2026-07-02T05:20:00+08:00
科教館,C0A770,臺北市,士林區,60.0,25.096356,121.516506,2026-07-02T10:00:00+08:00,晴,33.3,70,1005.5,0.0,0.3,163.0,33.8,2026-07-02T09:20:00+08:00,26.7,2026-07-02T04:10:00+08:00
大溪漁港,C0UA80,宜蘭縣,頭城鎮,10.0,24.941803,121.902956,2026-07-02T10:00:00+08:00,多雲,28.4,83,1010.3,0.0,4.1,31.0,31.1,2026-07-02T07:30:00+08:00,26.6,2026-07-02T03:50:00+08:00
石城,C0UA90,宜蘭縣,頭城鎮,5.0,24.980444,121.951214,2026-07-02T10:00:00+08:00,多雲,30.1,74,1010.6,0.0,1.3,82.0,31.9,2026-07-02T08:10:00+08:00,26.2,2026-07-02T05:00:00+08:00
大武崙,C0B040,基隆市,安樂區,15.0,25.166678,121.706994,2026-07-02T10:00:00+08:00,晴,29.3,84,1011.0,0.0,2.1,79.0,30.6,2026-07-02T06:50:00+08:00,25.0,2026-07-02T04:50:00+08:00
野柳,C0AJ20,新北市,萬里區,77.0,25.207031,121.690022,2026-07-02T10:00:00+08:00,晴,29.1,84,1004.9,0.0,2.2,104.0,30.3,2026-07-02T07:40:00+08:00,26.4,2026-07-02T04:10:00+08:00
淡水觀海,C0AJ30,新北市,淡水區,22.0,25.184592,121.408617,2026-07-02T10:00:00+08:00,晴,30.2,80,1008.8,0.0,2.1,287.0,31.8,2026-07-02T07:40:00+08:00,27.0,2026-07-02T05:10:00+08:00
竹圍,C0C720,桃園市,大園區,21.0,25.112694,121.239825,2026-07-02T10:00:00+08:00,晴,30.3,80,1009.9,0.0,3.0,293.0,30.6,2026-07-02T09:50:00+08:00,27.6,2026-07-02T04:40:00+08:00
中大臨海站,C0C730,桃園市,新屋區,5.0,24.966128,121.008583,2026-07-02T10:00:00+08:00,晴,32.2,73,1011.7,0.0,1.2,310.0,32.2,2026-07-02T10:00:00+08:00,26.1,2026-07-02T04:50:00+08:00
石門,C0AJ40,新北市,石門區,154.0,25.273672,121.601200,2026-07-02T10:00:00+08:00,晴,31.0,79,995.4,0.0,1.7,26.0,31.3,2026-07-02T08:40:00+08:00,23.7,2026-07-02T04:00:00+08:00
觀音工業區,C0C740,桃園市,觀音區,5.3,25.064767,121.114858,2026-07-02T10:00:00+08:00,晴,30.1,81,1011.1,0.0,2.5,285.0,30.2,2026-07-02T09:00:00+08:00,28.0,2026-07-02T05:00:00+08:00
海天一線,C0D670,新竹市,北區,23.0,24.831989,120.914439,2026-07-02T10:00:00+08:00,多雲,31.0,81,1010.1,0.0,2.0,319.0,31.0,2026-07-02T10:00:00+08:00,26.0,2026-07-02T05:10:00+08:00
香山濕地,C0D680,新竹市,香山區,22.0,24.783583,120.914989,2026-07-02T10:00:00+08:00,多雲,29.8,84,1010.5,0.0,2.8,323.0,30.2,2026-07-02T08:20:00+08:00,26.7,2026-07-02T05:30:00+08:00
水湳洞,C0AJ50,新北市,瑞芳區,30.0,25.123697,121.862239,2026-07-02T10:00:00+08:00,晴,30.8,78,1009.8,0.0,0.8,107.0,30.8,2026-07-02T10:00:00+08:00,26.1,2026-07-02T04:50:00+08:00
八斗子,C0B050,基隆市,中正區,5.0,25.144756,121.791672,2026-07-02T10:00:00+08:00,晴,29.3,84,1011.3,0.0,2.0,29.0,31.5,2026-07-02T07:10:00+08:00,26.3,2026-07-02T05:20:00+08:00
外湖,C0D690,新竹縣,新豐鄉,20.0,24.917736,120.968711,2026-07-02T10:00:00+08:00,晴,29.3,88,1010.5,0.0,2.6,300.0,29.4,2026-07-02T09:00:00+08:00,26.3,2026-07-02T05:40:00+08:00
海埔,C0E910,苗栗縣,後龍鎮,25.0,24.648769,120.772436,2026-07-02T10:00:00+08:00,多雲,30.1,83,1010.5,0.0,1.6,343.0,30.4,2026-07-02T08:00:00+08:00,26.7,2026-07-02T05:20:00+08:00
通霄漁港,C0E920,苗栗縣,通霄鎮,20.0,24.498589,120.673878,2026-07-02T10:00:00+08:00,陰,29.3,81,1011.2,0.0,2.5,354.0,29.3,2026-07-02T10:00:00+08:00,27.1,2026-07-02T03:30:00+08:00
松柏,C0FA10,臺中市,大甲區,22.0,24.429117,120.617483,2026-07-02T10:00:00+08:00,多雲,32.2,70,1010.0,0.0,0.9,42.0,32.2,2026-07-02T10:00:00+08:00,27.2,2026-07-02T05:50:00+08:00
溫寮,C0FA20,臺中市,大安區,26.0,24.372178,120.583125,2026-07-02T10:00:00+08:00,多雲,30.1,80,1010.3,0.0,3.0,348.0,30.1,2026-07-02T10:00:00+08:00,27.6,2026-07-02T02:20:00+08:00
龍鳳,C0E930,苗栗縣,竹南鎮,26.0,24.700036,120.859128,2026-07-02T10:00:00+08:00,多雲,30.1,85,1011.3,0.0,2.3,320.0,31.4,2026-07-02T07:20:00+08:00,27.6,2026-07-02T05:30:00+08:00
淡江大學蘭陽校園,C0UB00,宜蘭縣,礁溪鄉,379.0,24.823239,121.730383,2026-07-02T10:00:00+08:00,晴,30.4,78,969.5,0.0,1.0,116.0,30.4,2026-07-02T08:40:00+08:00,23.0,2026-07-02T04:00:00+08:00
林邊,C0R850,屏東縣,林邊鄉,16.0,22.463447,120.533892,2026-07-02T10:00:00+08:00,多雲,33.2,68,1010.5,0.0,1.4,332.0,33.3,2026-07-02T09:00:00+08:00,25.3,2026-07-02T05:00:00+08:00
六塊厝,C0AJ60,新北市,淡水區,13.0,25.240002,121.448102,2026-07-02T10:00:00+08:00,晴,30.9,80,1010.0,0.0,2.4,275.0,31.2,2026-07-02T08:50:00+08:00,24.8,2026-07-02T02:20:00+08:00
田寮,C0AJ70,新北市,三芝區,21.0,25.269800,121.488597,2026-07-02T10:00:00+08:00,晴,30.6,84,1009.5,0.0,2.2,287.0,30.9,2026-07-02T08:30:00+08:00,25.7,2026-07-02T02:30:00+08:00
新興坑尾,C0C750,桃園市,觀音區,72.0,25.006066,121.097072,2026-07-02T10:00:00+08:00,晴,29.9,74,1003.1,0.0,3.2,273.0,29.9,2026-07-02T10:00:00+08:00,26.8,2026-07-02T05:00:00+08:00
蘇澳,C0UB10,宜蘭縣,蘇澳鎮,28.0,24.596944,121.857089,2026-07-02T10:00:00+08:00,晴,32.1,60,1007.9,0.0,2.8,193.0,32.1,2026-07-02T10:00:00+08:00,25.7,2026-07-02T05:20:00+08:00
壯圍,C0UB20,宜蘭縣,壯圍鄉,30.0,24.735922,121.816250,2026-07-02T10:00:00+08:00,晴,29.4,78,1009.1,0.0,2.4,56.0,30.3,2026-07-02T07:10:00+08:00,25.9,2026-07-02T05:20:00+08:00
北關,C0U880,宜蘭縣,頭城鎮,2.0,24.907222,121.873428,2026-07-02T10:00:00+08:00,晴,30.2,73,1010.7,0.0,5.0,58.0,31.1,2026-07-02T07:10:00+08:00,26.0,2026-07-02T04:30:00+08:00
防潮門,C0G950,彰化縣,伸港鄉,23.0,24.183494,120.487130,2026-07-02T10:00:00+08:00,晴,30.3,83,1009.5,0.0,3.3,313.0,30.8,2026-07-02T09:30:00+08:00,28.4,2026-07-02T04:00:00+08:00
臺中電廠,C0FA40,臺中市,龍井區,25.0,24.214641,120.490744,2026-07-02T10:00:00+08:00,晴,29.3,82,1009.8,0.0,3.0,336.0,29.4,2026-07-02T09:10:00+08:00,28.3,2026-07-02T03:40:00+08:00
福寶,C0G960,彰化縣,福興鄉,5.0,24.044302,120.381361,2026-07-02T10:00:00+08:00,晴,30.4,84,1010.6,0.0,4.6,314.0,30.4,2026-07-02T10:00:00+08:00,28.3,2026-07-02T01:50:00+08:00
三豐,C0G970,彰化縣,大城鄉,19.0,23.881975,120.289544,2026-07-02T10:00:00+08:00,晴,29.4,85,1009.4,0.0,4.4,340.0,31.1,2026-07-02T08:50:00+08:00,27.9,2026-07-02T04:30:00+08:00
箔子寮,C0K600,雲林縣,口湖鄉,14.0,23.619744,120.140036,2026-07-02T10:00:00+08:00,晴,29.7,82,1010.3,0.0,3.0,311.0,30.5,2026-07-02T07:50:00+08:00,28.1,2026-07-02T01:50:00+08:00
好美里,C0M880,嘉義縣,布袋鎮,27.0,23.336427,120.138033,2026-07-02T10:00:00+08:00,晴,30.3,82,1009.9,0.0,2.3,318.0,33.1,2026-07-02T08:50:00+08:00,28.3,2026-07-02T03:20:00+08:00
板橋,C0AJ80,新北市,板橋區,38.0,25.010653,121.448861,2026-07-02T10:00:00+08:00,晴,32.1,65,1007.4,0.0,1.8,317.0,32.8,2026-07-02T09:30:00+08:00,26.6,2026-07-02T05:00:00+08:00
東莒,C0W110,連江縣,莒光鄉,16.0,25.965197,119.980686,2026-07-02T10:00:00+08:00,多雲,29.3,79,1009.4,0.0,5.3,187.0,30.2,2026-07-02T08:20:00+08:00,27.2,2026-07-02T04:50:00+08:00
西嶼,C0W120,澎湖縣,西嶼鄉,58.0,23.562600,119.468436,2026-07-02T10:00:00+08:00,晴,29.4,84,1005.4,0.0,1.7,360.0,29.7,2026-07-02T08:50:00+08:00,26.4,2026-07-02T02:30:00+08:00
花嶼,C0W130,澎湖縣,望安鄉,18.0,23.400069,119.322761,2026-07-02T10:00:00+08:00,晴,29.2,85,1009.4,0.0,2.9,52.0,29.5,2026-07-02T09:20:00+08:00,25.9,2026-07-02T01:40:00+08:00
金沙,C0W140,金門縣,金沙鎮,21.0,24.488292,118.408778,2026-07-02T10:00:00+08:00,晴,32.4,64,1010.1,0.0,2.0,200.0,32.9,2026-07-02T09:50:00+08:00,26.9,2026-07-02T05:00:00+08:00
金寧,C0W150,金門縣,金寧鄉,42.0,24.457703,118.328989,2026-07-02T10:00:00+08:00,晴,32.3,66,1007.7,0.0,1.9,222.0,32.3,2026-07-02T10:00:00+08:00,27.7,2026-07-02T00:40:00+08:00
烏坵,C0W160,金門縣,烏坵鄉,49.0,24.994400,119.449556,2026-07-02T10:00:00+08:00,晴,30.2,76,1003.4,0.0,2.4,234.0,30.2,2026-07-02T10:00:00+08:00,26.9,2026-07-02T05:40:00+08:00
松山,C0AH70,臺北市,松山區,34.0,25.048711,121.550428,2026-07-02T10:00:00+08:00,晴,32.8,67,1007.8,0.0,1.2,53.0,32.8,2026-07-02T10:00:00+08:00,26.9,2026-07-02T05:30:00+08:00
高鐵苗栗,C0E870,苗栗縣,後龍鎮,34.0,24.607250,120.826094,2026-07-02T10:00:00+08:00,多雲,29.1,94,1009.1,0.0,0.3,322.0,29.9,2026-07-02T09:10:00+08:00,26.1,2026-07-02T05:40:00+08:00
高鐵雲林,C0K580,雲林縣,虎尾鎮,26.0,23.737456,120.417944,2026-07-02T10:00:00+08:00,多雲,31.9,72,1008.6,0.0,1.7,223.0,32.7,2026-07-02T09:40:00+08:00,26.9,2026-07-02T03:20:00+08:00
國一五楊N44K,C0C690,桃園市,龜山區,242.0,25.063861,121.340164,2026-07-02T10:00:00+08:00,晴,29.4,81,984.2,0.0,0.6,318.0,29.4,2026-07-02T10:00:00+08:00,25.4,2026-07-02T03:20:00+08:00
基隆嶼,C0B020,基隆市,中正區,86.0,25.191408,121.783914,2026-07-02T10:00:00+08:00,晴,31.6,74,1000.2,0.0,0.0,0.0,31.8,2026-07-02T09:50:00+08:00,26.0,2026-07-02T05:20:00+08:00
蘭嶼高中,C0S900,臺東縣,蘭嶼鄉,27.0,22.049094,121.512142,2026-07-02T10:00:00+08:00,晴,30.0,85,1010.2,13.0,6.2,147.0,30.0,2026-07-02T09:00:00+08:00,26.8,2026-07-02T03:30:00+08:00
蘭嶼燈塔,C0S910,臺東縣,蘭嶼鄉,212.0,22.081194,121.503117,2026-07-02T10:00:00+08:00,晴,29.7,85,989.6,12.0,1.0,65.0,29.7,2026-07-02T10:00:00+08:00,25.8,2026-07-02T03:30:00+08:00
白沙灣,C0AI20,新北市,石門區,25.0,25.283128,121.519058,2026-07-02T10:00:00+08:00,晴,30.4,84,1008.6,0.0,2.0,314.0,30.4,2026-07-02T10:00:00+08:00,25.4,2026-07-02T02:00:00+08:00
小林,C0V820,高雄市,甲仙區,441.0,23.148408,120.633250,2026-07-02T10:00:00+08:00,晴,31.6,67,963.6,0.0,1.0,183.0,31.7,2026-07-02T09:50:00+08:00,22.4,2026-07-02T06:00:00+08:00
大溪永福,C0C710,桃園市,大溪區,143.0,24.892936,121.324975,2026-07-02T10:00:00+08:00,晴,31.3,71,995.5,0.0,0.8,261.0,32.5,2026-07-02T09:40:00+08:00,24.3,2026-07-02T05:10:00+08:00
玉蘭,C0U650,宜蘭縣,大同鄉,442.0,24.675286,121.587061,2026-07-02T10:00:00+08:00,晴,31.2,65,962.7,0.0,1.5,88.0,31.2,2026-07-02T10:00:00+08:00,24.0,2026-07-02T02:50:00+08:00
五結,C0U780,宜蘭縣,五結鄉,15.0,24.686369,121.797944,2026-07-02T10:00:00+08:00,晴,31.7,64,1009.4,0.0,1.2,109.0,31.7,2026-07-02T09:50:00+08:00,25.9,2026-07-02T05:20:00+08:00
太平山,C0U710,宜蘭縣,大同鄉,1942.0,24.505486,121.525656,2026-07-02T10:00:00+08:00,晴,20.7,81,811.1,0.0,0.0,0.0,20.7,2026-07-02T10:00:00+08:00,16.0,2026-07-02T00:40:00+08:00
南山,C0U720,宜蘭縣,大同鄉,1260.0,24.437419,121.381669,2026-07-02T10:00:00+08:00,晴,28.1,50,887.8,0.0,2.6,64.0,28.3,2026-07-02T09:00:00+08:00,21.0,2026-07-02T02:00:00+08:00
雙連埤,C0U520,宜蘭縣,員山鄉,517.0,24.753033,121.641303,2026-07-02T10:00:00+08:00,晴,31.0,71,955.6,0.0,0.1,0.0,31.0,2026-07-02T10:00:00+08:00,21.0,2026-07-02T05:10:00+08:00
頭城,C0U860,宜蘭縣,頭城鎮,5.0,24.853233,121.830797,2026-07-02T10:00:00+08:00,晴,30.7,79,1010.3,0.0,4.3,52.0,31.8,2026-07-02T07:10:00+08:00,25.2,2026-07-02T05:10:00+08:00
大礁溪,C0U870,宜蘭縣,礁溪鄉,474.0,24.791042,121.675047,2026-07-02T10:00:00+08:00,晴,30.7,75,959.6,0.0,0.6,70.0,30.7,2026-07-02T10:00:00+08:00,24.0,2026-07-02T02:10:00+08:00
三星,C0U890,宜蘭縣,三星鄉,116.0,24.668122,121.653017,2026-07-02T10:00:00+08:00,晴,31.1,68,998.9,0.0,2.5,69.0,31.1,2026-07-02T10:00:00+08:00,24.5,2026-07-02T05:00:00+08:00
內城,C0U900,宜蘭縣,員山鄉,63.0,24.718133,121.687664,2026-07-02T10:00:00+08:00,晴,32.5,60,1004.8,0.0,1.0,46.0,32.7,2026-07-02T09:50:00+08:00,24.8,2026-07-02T05:00:00+08:00
冬山,C0U910,宜蘭縣,冬山鄉,17.0,24.633725,121.793697,2026-07-02T10:00:00+08:00,晴,31.2,69,1009.2,0.0,1.7,56.0,31.8,2026-07-02T09:10:00+08:00,26.3,2026-07-02T05:10:00+08:00
礁溪,C0U600,宜蘭縣,礁溪鄉,10.0,24.817539,121.765608,2026-07-02T10:00:00+08:00,晴,31.9,68,1009.3,0.0,1.2,81.0,32.1,2026-07-02T09:10:00+08:00,25.1,2026-07-02T04:40:00+08:00
龜山島,C0U750,宜蘭縣,頭城鎮,398.0,24.841667,121.953133,2026-07-02T10:00:00+08:00,多雲,24.6,93,966.0,0.0,6.6,135.0,24.6,2026-07-02T10:00:00+08:00,23.3,2026-07-02T04:50:00+08:00
三貂角,C0A970,新北市,貢寮區,96.0,25.007606,122.002058,2026-07-02T10:00:00+08:00,多雲,28.2,84,1001.4,0.0,9.0,190.0,28.6,2026-07-02T09:40:00+08:00,25.8,2026-07-02T04:50:00+08:00
羅東,C0U940,宜蘭縣,羅東鎮,25.0,24.681836,121.749344,2026-07-02T10:00:00+08:00,晴,34.1,64,1008.9,0.0,0.3,60.0,34.1,2026-07-02T10:00:00+08:00,25.1,2026-07-02T05:00:00+08:00
鶯子嶺,C0U950,宜蘭縣,頭城鎮,1012.0,24.897536,121.792444,2026-07-02T10:00:00+08:00,晴,29.9,43,904.1,0.0,1.5,112.0,30.4,2026-07-02T09:30:00+08:00,21.3,2026-07-02T04:00:00+08:00
大福,C0U970,宜蘭縣,壯圍鄉,7.0,24.800636,121.813892,2026-07-02T10:00:00+08:00,晴,30.1,76,1011.0,0.0,0.5,133.0,30.1,2026-07-02T10:00:00+08:00,25.3,2026-07-02T05:10:00+08:00
坪林石牌,C0U980,宜蘭縣,頭城鎮,573.0,24.864781,121.773961,2026-07-02T10:00:00+08:00,晴,29.3,86,947.9,0.0,1.6,146.0,29.8,2026-07-02T09:40:00+08:00,23.4,2026-07-02T04:40:00+08:00
天祥,C0T820,花蓮縣,秀林鄉,550.0,24.179597,121.495639,2026-07-02T10:00:00+08:00,晴,31.2,52,954.1,0.0,1.2,118.0,32.2,2026-07-02T09:40:00+08:00,21.1,2026-07-02T05:00:00+08:00
東華,C0Z100,花蓮縣,壽豐鄉,36.0,23.895250,121.549833,2026-07-02T10:00:00+08:00,晴,33.6,60,1008.3,0.0,0.3,302.0,33.6,2026-07-02T10:00:00+08:00,24.0,2026-07-02T04:30:00+08:00
鯉魚潭,C0T870,花蓮縣,壽豐鄉,135.0,23.935639,121.508944,2026-07-02T10:00:00+08:00,晴,31.8,61,996.2,0.0,0.9,146.0,31.9,2026-07-02T09:50:00+08:00,22.6,2026-07-02T04:50:00+08:00
水源,C0T9B0,花蓮縣,秀林鄉,558.0,23.991914,121.537181,2026-07-02T10:00:00+08:00,晴,29.3,73,951.8,0.0,1.4,122.0,29.3,2026-07-02T10:00:00+08:00,22.5,2026-07-02T04:50:00+08:00
鳳林山,C0T9G0,花蓮縣,鳳林鎮,605.0,23.735269,121.420131,2026-07-02T10:00:00+08:00,晴,28.4,67,947.7,0.0,0.9,216.0,28.4,2026-07-02T10:00:00+08:00,22.7,2026-07-02T04:30:00+08:00
光復,C0T960,花蓮縣,光復鄉,120.0,23.660694,121.424964,2026-07-02T10:00:00+08:00,晴,32.4,59,998.7,0.0,2.0,228.0,32.4,2026-07-02T10:00:00+08:00,23.2,2026-07-02T02:50:00+08:00
西林,C0T900,花蓮縣,萬榮鄉,160.0,23.811900,121.441458,2026-07-02T10:00:00+08:00,晴,32.3,61,992.0,0.0,1.8,130.0,32.5,2026-07-02T09:40:00+08:00,24.2,2026-07-02T04:50:00+08:00
月眉山,C0T9A0,花蓮縣,壽豐鄉,498.0,23.809928,121.539828,2026-07-02T10:00:00+08:00,晴,28.1,80,957.5,0.0,1.2,159.0,29.2,2026-07-02T09:10:00+08:00,22.9,2026-07-02T04:50:00+08:00
大坑,C0T9E0,花蓮縣,壽豐鄉,415.0,23.880628,121.581981,2026-07-02T10:00:00+08:00,晴,29.5,77,966.9,0.0,0.9,238.0,30.7,2026-07-02T09:30:00+08:00,23.5,2026-07-02T01:50:00+08:00
加路蘭山,C0T9H0,花蓮縣,豐濱鄉,725.0,23.682947,121.527400,2026-07-02T10:00:00+08:00,晴,27.5,81,933.8,0.0,2.9,133.0,28.9,2026-07-02T08:10:00+08:00,22.4,2026-07-02T02:20:00+08:00
水璉,C0T9F0,花蓮縣,壽豐鄉,251.0,23.797131,121.542514,2026-07-02T10:00:00+08:00,晴,31.6,72,984.2,0.0,0.5,183.0,32.0,2026-07-02T09:10:00+08:00,24.5,2026-07-02T02:20:00+08:00
豐濱,C0T9I0,花蓮縣,豐濱鄉,152.0,23.583897,121.514806,2026-07-02T10:00:00+08:00,晴,29.0,79,995.6,0.0,3.6,224.0,30.4,2026-07-02T08:40:00+08:00,23.9,2026-07-02T02:50:00+08:00
明里,C0Z020,花蓮縣,富里鄉,211.0,23.208717,121.262342,2026-07-02T10:00:00+08:00,晴,31.6,63,987.8,0.0,5.1,218.0,31.6,2026-07-02T10:00:00+08:00,22.3,2026-07-02T05:30:00+08:00
玉里,C0Z061,花蓮縣,玉里鎮,174.0,23.321500,121.339656,2026-07-02T10:00:00+08:00,晴,33.2,61,995.5,0.0,0.7,132.0,33.2,2026-07-02T10:00:00+08:00,23.7,2026-07-02T05:30:00+08:00
舞鶴,C0Z070,花蓮縣,瑞穗鄉,247.0,23.468114,121.374069,2026-07-02T10:00:00+08:00,晴,30.8,63,984.1,0.0,1.1,156.0,30.8,2026-07-02T10:00:00+08:00,22.9,2026-07-02T05:00:00+08:00
佳心,C0Z050,花蓮縣,卓溪鄉,830.0,23.345667,121.213164,2026-07-02T10:00:00+08:00,晴,27.6,63,923.7,0.0,0.6,120.0,27.6,2026-07-02T10:00:00+08:00,20.8,2026-07-02T05:40:00+08:00
富源,C0Z080,花蓮縣,光復鄉,298.0,23.587642,121.378225,2026-07-02T10:00:00+08:00,晴,32.0,63,979.1,0.0,0.8,158.0,32.0,2026-07-02T10:00:00+08:00,22.7,2026-07-02T04:20:00+08:00
吉安光華,C0Z150,花蓮縣,吉安鄉,27.0,23.930925,121.595153,2026-07-02T10:00:00+08:00,晴,30.8,73,1009.0,0.0,4.1,144.0,31.3,2026-07-02T09:20:00+08:00,24.9,2026-07-02T05:00:00+08:00
鳳林,C0Z160,花蓮縣,鳳林鎮,124.0,23.746114,121.453411,2026-07-02T10:00:00+08:00,晴,31.8,58,999.1,0.0,2.3,198.0,31.8,2026-07-02T10:00:00+08:00,23.9,2026-07-02T05:10:00+08:00
卓溪,C0Z170,花蓮縣,卓溪鄉,216.0,23.344331,121.302853,2026-07-02T10:00:00+08:00,晴,31.1,62,990.0,0.0,2.5,194.0,31.2,2026-07-02T09:50:00+08:00,23.1,2026-07-02T05:00:00+08:00
新城,C0Z180,花蓮縣,新城鄉,37.0,24.040486,121.604878,2026-07-02T10:00:00+08:00,晴,31.2,67,1008.3,0.0,2.4,144.0,31.7,2026-07-02T09:40:00+08:00,25.5,2026-07-02T05:00:00+08:00
富世,C0Z190,花蓮縣,秀林鄉,62.0,24.147433,121.629703,2026-07-02T10:00:00+08:00,晴,30.7,72,1004.9,0.0,3.1,157.0,31.2,2026-07-02T08:40:00+08:00,25.4,2026-07-02T04:50:00+08:00
萬榮,C0Z200,花蓮縣,鳳林鎮,153.0,23.709219,121.420106,2026-07-02T10:00:00+08:00,晴,31.6,58,995.3,0.0,2.7,199.0,31.6,2026-07-02T10:00:00+08:00,24.2,2026-07-02T05:20:00+08:00
瑞穗,C0Z210,花蓮縣,瑞穗鄉,126.0,23.523900,121.390211,2026-07-02T10:00:00+08:00,晴,31.4,64,998.8,0.0,1.4,121.0,31.4,2026-07-02T10:00:00+08:00,23.7,2026-07-02T05:20:00+08:00
瑞穗林道,C0Z250,花蓮縣,卓溪鄉,1124.0,23.492842,121.306883,2026-07-02T10:00:00+08:00,晴,28.6,64,891.3,0.0,0.4,58.0,29.0,2026-07-02T09:10:00+08:00,19.1,2026-07-02T05:00:00+08:00
蕃薯寮,C0Z270,花蓮縣,壽豐鄉,343.0,23.738350,121.540108,2026-07-02T10:00:00+08:00,晴,29.2,80,974.4,0.0,1.1,80.0,29.8,2026-07-02T08:30:00+08:00,23.2,2026-07-02T04:10:00+08:00
德武,C0Z280,花蓮縣,玉里鎮,224.0,23.474264,121.410711,2026-07-02T10:00:00+08:00,晴,32.0,57,987.6,0.0,0.8,168.0,32.0,2026-07-02T09:40:00+08:00,23.1,2026-07-02T05:40:00+08:00
赤柯山,C0Z290,花蓮縣,玉里鎮,946.0,23.368928,121.382931,2026-07-02T10:00:00+08:00,晴,27.5,77,910.8,0.0,0.6,165.0,27.5,2026-07-02T09:50:00+08:00,20.5,2026-07-02T04:00:00+08:00
東里,C0Z300,花蓮縣,富里鄉,182.0,23.268528,121.305469,2026-07-02T10:00:00+08:00,晴,32.4,61,993.0,0.0,2.7,196.0,32.4,2026-07-02T09:50:00+08:00,23.3,2026-07-02T05:30:00+08:00
清水斷崖,C0Z310,花蓮縣,秀林鄉,59.0,24.218294,121.689142,2026-07-02T10:00:00+08:00,晴,31.2,70,1005.9,0.0,1.8,197.0,32.3,2026-07-02T08:20:00+08:00,26.0,2026-07-02T04:20:00+08:00
清水林道,C0Z320,花蓮縣,卓溪鄉,646.0,23.271250,121.188272,2026-07-02T10:00:00+08:00,晴,30.3,53,942.2,0.0,0.9,71.0,30.3,2026-07-02T10:00:00+08:00,20.0,2026-07-02T05:20:00+08:00
安通山,C0Z330,花蓮縣,玉里鎮,488.0,23.290728,121.348528,2026-07-02T10:00:00+08:00,晴,31.2,65,959.4,0.0,0.1,0.0,31.2,2026-07-02T10:00:00+08:00,22.6,2026-07-02T05:50:00+08:00
靜浦,C0T9M0,花蓮縣,豐濱鄉,92.0,23.455167,121.495028,2026-07-02T10:00:00+08:00,晴,30.2,85,1003.0,0.0,3.8,170.0,30.7,2026-07-02T08:00:00+08:00,25.0,2026-07-02T04:40:00+08:00
長濱,C0S830,臺東縣,長濱鄉,288.0,23.286817,121.411975,2026-07-02T10:00:00+08:00,晴,32.1,72,981.6,0.0,1.6,131.0,32.4,2026-07-02T09:10:00+08:00,25.3,2026-07-02T05:00:00+08:00
東河,C0S810,臺東縣,東河鄉,65.0,22.972672,121.303986,2026-07-02T10:00:00+08:00,晴,32.0,75,1007.5,0.0,1.7,193.0,32.6,2026-07-02T08:40:00+08:00,24.7,2026-07-02T03:10:00+08:00
綠島,C0S730,臺東縣,綠島鄉,110.0,22.667203,121.475328,2026-07-02T10:00:00+08:00,多雲,30.0,83,1000.1,0.0,3.1,179.0,32.4,2026-07-02T07:20:00+08:00,26.4,2026-07-02T04:30:00+08:00
下馬,C0S660,臺東縣,海端鄉,794.0,23.150194,121.070025,2026-07-02T10:00:00+08:00,晴,27.6,63,927.2,0.0,1.2,77.0,28.4,2026-07-02T09:30:00+08:00,18.3,2026-07-02T04:30:00+08:00
向陽,C0S750,臺東縣,海端鄉,2280.0,23.248397,120.986133,2026-07-02T10:00:00+08:00,晴,21.4,63,777.4,0.0,0.5,87.0,21.4,2026-07-02T10:00:00+08:00,13.0,2026-07-02T00:20:00+08:00
紅石,C0S760,臺東縣,海端鄉,1624.0,23.069131,121.125856,2026-07-02T10:00:00+08:00,晴,22.6,82,842.8,0.0,0.9,136.0,22.6,2026-07-02T10:00:00+08:00,16.8,2026-07-02T01:10:00+08:00
池上,C0S740,臺東縣,池上鄉,289.0,23.119628,121.209469,2026-07-02T10:00:00+08:00,晴,31.1,66,980.7,0.0,1.8,232.0,31.1,2026-07-02T10:00:00+08:00,22.7,2026-07-02T03:40:00+08:00
鹿野,C0S710,臺東縣,鹿野鄉,382.0,22.917711,121.122994,2026-07-02T10:00:00+08:00,晴,30.8,72,970.6,0.0,1.2,169.0,30.8,2026-07-02T10:00:00+08:00,23.2,2026-07-02T05:10:00+08:00
土坂,C0SA80,臺東縣,達仁鄉,136.0,22.453108,120.887572,2026-07-02T10:00:00+08:00,陰,29.7,80,997.6,0.5,0.3,103.0,29.9,2026-07-02T09:10:00+08:00,24.3,2026-07-02T04:40:00+08:00
大溪山,C0S770,臺東縣,太麻里鄉,375.0,22.478475,120.943325,2026-07-02T10:00:00+08:00,陰,27.9,84,971.2,0.0,1.1,31.0,27.9,2026-07-02T08:20:00+08:00,23.2,2026-07-02T03:30:00+08:00
南田,C0S840,臺東縣,達仁鄉,22.0,22.279725,120.889208,2026-07-02T10:00:00+08:00,陰有雨,26.8,92,1012.3,28.0,0.4,329.0,28.0,2026-07-02T09:30:00+08:00,25.7,2026-07-02T05:40:00+08:00
金崙,C0S790,臺東縣,太麻里鄉,236.0,22.538122,120.966875,2026-07-02T10:00:00+08:00,陰,30.8,76,987.8,0.0,0.7,93.0,31.1,2026-07-02T09:40:00+08:00,24.6,2026-07-02T04:20:00+08:00
太麻里,C0S690,臺東縣,太麻里鄉,522.0,22.609022,120.985328,2026-07-02T10:00:00+08:00,多雲,31.1,72,954.8,0.0,1.0,59.0,31.4,2026-07-02T09:50:00+08:00,22.8,2026-07-02T03:00:00+08:00
知本,C0S700,臺東縣,卑南鄉,507.0,22.684872,121.005644,2026-07-02T10:00:00+08:00,多雲,30.1,74,957.6,0.0,1.5,88.0,31.8,2026-07-02T08:50:00+08:00,21.5,2026-07-02T04:50:00+08:00
富里,C0T9N0,花蓮縣,富里鄉,261.0,23.171639,121.249378,2026-07-02T10:00:00+08:00,晴,31.5,60,983.5,0.0,1.7,257.0,31.5,2026-07-02T09:50:00+08:00,22.8,2026-07-02T05:30:00+08:00
中壢,C0C700,桃園市,中壢區,151.0,24.977661,121.256375,2026-07-02T10:00:00+08:00,晴,31.0,72,995.4,0.0,0.9,327.0,31.0,2026-07-02T10:00:00+08:00,27.4,2026-07-02T02:30:00+08:00
柳營,C0X320,臺南市,柳營區,30.0,23.253328,120.375253,2026-07-02T10:00:00+08:00,多雲,32.3,66,1007.6,0.0,1.7,276.0,32.9,2026-07-02T09:50:00+08:00,25.6,2026-07-02T04:50:00+08:00
關西,C0D700,新竹縣,關西鎮,155.0,24.797653,121.173239,2026-07-02T10:00:00+08:00,多雲,30.8,72,993.4,0.0,0.5,278.0,30.8,2026-07-02T10:00:00+08:00,24.0,2026-07-02T05:20:00+08:00
新美,C0M860,嘉義縣,阿里山鄉,578.0,23.338017,120.683331,2026-07-02T10:00:00+08:00,晴,28.3,77,948.2,0.0,0.3,103.0,28.3,2026-07-02T09:30:00+08:00,22.8,2026-07-02T05:40:00+08:00
永靖,C0G920,彰化縣,永靖鄉,42.0,23.924703,120.547533,2026-07-02T10:00:00+08:00,晴,31.6,69,1007.2,0.0,1.5,275.0,32.0,2026-07-02T09:30:00+08:00,27.6,2026-07-02T04:00:00+08:00
竹塘,C0G940,彰化縣,竹塘鄉,21.0,23.848253,120.386764,2026-07-02T10:00:00+08:00,晴,31.6,76,1009.9,0.0,0.9,319.0,32.9,2026-07-02T09:50:00+08:00,26.9,2026-07-02T02:20:00+08:00
雲林東勢,C0K590,雲林縣,東勢鄉,18.0,23.674194,120.255722,2026-07-02T10:00:00+08:00,晴,31.8,77,1009.7,0.0,1.3,276.0,32.4,2026-07-02T09:20:00+08:00,27.7,2026-07-02T03:50:00+08:00
車城,C0R320,屏東縣,車城鄉,7.0,22.074400,120.716247,2026-07-02T10:00:00+08:00,多雲有雨,31.2,82,1011.3,5.0,1.7,86.0,31.2,2026-07-02T10:00:00+08:00,25.9,2026-07-02T05:00:00+08:00
大漢山,C0R440,屏東縣,春日鄉,1679.0,22.405264,120.753181,2026-07-02T10:00:00+08:00,陰有雨,18.5,100,836.2,3.5,5.5,62.0,18.5,2026-07-02T10:00:00+08:00,16.7,2026-07-02T01:00:00+08:00
枋山,C0R700,屏東縣,枋山鄉,18.0,22.247814,120.660794,2026-07-02T10:00:00+08:00,陰,29.6,74,1010.5,0.0,3.7,143.0,31.3,2026-07-02T08:00:00+08:00,28.5,2026-07-02T06:20:00+08:00
枋寮,C0R660,屏東縣,枋寮鄉,20.0,22.367722,120.590647,2026-07-02T10:00:00+08:00,多雲,30.4,78,1009.6,0.0,7.5,186.0,31.3,2026-07-02T07:00:00+08:00,27.2,2026-07-02T02:50:00+08:00
楓港,C0R670,屏東縣,枋山鄉,26.0,22.190131,120.692156,2026-07-02T10:00:00+08:00,多雲有雨,27.7,90,1010.1,2.0,0.8,178.0,29.4,2026-07-02T07:50:00+08:00,27.0,2026-07-02T05:40:00+08:00
檳榔,C0R280,屏東縣,滿州鄉,242.0,22.076075,120.836794,2026-07-02T10:00:00+08:00,多雲,26.6,100,985.6,34.0,1.1,50.0,26.6,2026-07-02T10:00:00+08:00,23.8,2026-07-02T05:30:00+08:00
牡丹,C0R341,屏東縣,牡丹鄉,230.0,22.130036,120.792639,2026-07-02T10:00:00+08:00,多雲有雨,27.0,100,986.5,21.0,0.4,42.0,27.0,2026-07-02T10:00:00+08:00,24.4,2026-07-02T05:40:00+08:00
佳樂水,C0R680,屏東縣,滿州鄉,13.0,21.993578,120.861633,2026-07-02T10:00:00+08:00,多雲,29.8,87,1011.6,29.0,4.2,90.0,30.0,2026-07-02T09:50:00+08:00,25.9,2026-07-02T04:40:00+08:00
墾丁,C0R690,屏東縣,恆春鎮,248.0,21.966756,120.810269,2026-07-02T10:00:00+08:00,多雲,28.1,91,985.2,15.0,2.4,144.0,28.1,2026-07-02T10:00:00+08:00,24.8,2026-07-02T04:50:00+08:00
旭海,C0R720,屏東縣,牡丹鄉,214.0,22.205403,120.887614,2026-07-02T10:00:00+08:00,多雲有雨,26.6,96,988.8,22.5,3.2,14.0,26.6,2026-07-02T10:00:00+08:00,24.2,2026-07-02T05:20:00+08:00
貓鼻頭,C0R350,屏東縣,恆春鎮,35.0,21.921689,120.735817,2026-07-02T10:00:00+08:00,多雲,29.2,83,1008.8,0.0,4.8,111.0,30.8,2026-07-02T09:30:00+08:00,27.1,2026-07-02T05:20:00+08:00
墾雷,C0R620,屏東縣,恆春鎮,34.0,21.900836,120.855269,2026-07-02T10:00:00+08:00,多雲,30.1,89,1010.0,1.0,2.8,17.0,30.8,2026-07-02T09:30:00+08:00,27.0,2026-07-02T04:40:00+08:00
四林格山,C0R750,屏東縣,牡丹鄉,551.0,22.076989,120.802439,2026-07-02T10:00:00+08:00,多雲,25.2,100,951.0,28.0,5.1,125.0,25.4,2026-07-02T09:50:00+08:00,23.4,2026-07-02T05:30:00+08:00
大坪頂,C0R730,屏東縣,恆春鎮,163.0,22.024633,120.693550,2026-07-02T10:00:00+08:00,多雲有雨,29.8,98,994.5,3.0,1.1,67.0,29.8,2026-07-02T10:00:00+08:00,25.5,2026-07-02T05:10:00+08:00
龍磐,C0R710,屏東縣,恆春鎮,117.0,21.931672,120.838942,2026-07-02T10:00:00+08:00,多雲,31.0,83,1000.0,4.5,4.4,121.0,31.0,2026-07-02T10:00:00+08:00,25.8,2026-07-02T05:00:00+08:00
獅子,C0R741,屏東縣,獅子鄉,72.0,22.202308,120.705236,2026-07-02T10:00:00+08:00,多雲有雨,27.2,94,1005.8,7.5,1.3,80.0,28.8,2026-07-02T07:50:00+08:00,26.8,2026-07-02T06:00:00+08:00
東澳,C0U760,宜蘭縣,南澳鄉,22.0,24.521958,121.833175,2026-07-02T10:00:00+08:00,晴,32.5,57,1009.6,0.0,1.5,168.0,33.3,2026-07-02T09:50:00+08:00,24.2,2026-07-02T05:00:00+08:00
南澳,C0U770,宜蘭縣,南澳鄉,5.0,24.449347,121.810219,2026-07-02T10:00:00+08:00,晴,31.3,77,1011.3,0.0,2.1,107.0,32.3,2026-07-02T08:30:00+08:00,24.7,2026-07-02T05:10:00+08:00
和中,C0T9D0,花蓮縣,秀林鄉,7.0,24.266761,121.741031,2026-07-02T10:00:00+08:00,晴,30.9,65,1010.5,0.0,2.1,264.0,31.3,2026-07-02T08:40:00+08:00,24.2,2026-07-02T02:10:00+08:00
翠峰湖,C0U960,宜蘭縣,大同鄉,1885.0,24.510856,121.608044,2026-07-02T10:00:00+08:00,晴,24.3,63,816.6,0.0,0.8,201.0,24.4,2026-07-02T09:30:00+08:00,13.4,2026-07-02T05:10:00+08:00
和平林道,C0Z220,花蓮縣,秀林鄉,589.0,24.343922,121.656317,2026-07-02T10:00:00+08:00,晴,29.6,68,947.6,0.0,0.8,10.0,29.9,2026-07-02T09:40:00+08:00,23.2,2026-07-02T01:20:00+08:00
和平,C0Z230,花蓮縣,秀林鄉,31.0,24.307169,121.770069,2026-07-02T10:00:00+08:00,晴,28.3,80,1008.4,0.0,9.6,189.0,28.7,2026-07-02T08:10:00+08:00,26.8,2026-07-02T01:20:00+08:00
樟樹山,C0UA60,宜蘭縣,南澳鄉,566.0,24.413925,121.783247,2026-07-02T10:00:00+08:00,晴,29.5,70,949.3,0.0,0.5,199.0,30.6,2026-07-02T09:20:00+08:00,22.5,2026-07-02T05:10:00+08:00
桃源谷,C0UA70,宜蘭縣,頭城鎮,547.0,24.962606,121.888875,2026-07-02T10:00:00+08:00,晴,29.5,78,952.0,0.0,3.6,94.0,30.5,2026-07-02T09:40:00+08:00,23.3,2026-07-02T04:00:00+08:00
西帽山,C0UA50,宜蘭縣,南澳鄉,808.0,24.555361,121.802628,2026-07-02T10:00:00+08:00,晴,26.0,79,923.7,0.0,2.8,154.0,29.0,2026-07-02T06:30:00+08:00,23.8,2026-07-02T00:40:00+08:00
西德山,C0UA40,宜蘭縣,南澳鄉,1121.0,24.560647,121.752608,2026-07-02T10:00:00+08:00,晴,29.4,71,891.0,0.0,0.7,36.0,31.8,2026-07-02T08:50:00+08:00,22.6,2026-07-02T00:20:00+08:00
福山植物園,C0AH90,新北市,烏來區,660.0,24.760717,121.581350,2026-07-02T10:00:00+08:00,晴,31.6,59,940.2,0.0,0.7,74.0,31.6,2026-07-02T09:30:00+08:00,18.7,2026-07-02T05:20:00+08:00
鴛鴦湖,C0UA10,宜蘭縣,大同鄉,1711.0,24.590269,121.412228,2026-07-02T10:00:00+08:00,晴,24.3,65,834.1,0.0,0.3,153.0,24.3,2026-07-02T10:00:00+08:00,16.1,2026-07-02T05:00:00+08:00
白嶺,C0UA30,宜蘭縣,大同鄉,1397.0,24.527819,121.519031,2026-07-02T10:00:00+08:00,晴,27.2,67,862.5,0.0,0.0,0.0,27.4,2026-07-02T09:40:00+08:00,19.8,2026-07-02T00:30:00+08:00
土場,C0UA00,宜蘭縣,大同鄉,392.0,24.576533,121.495333,2026-07-02T10:00:00+08:00,晴,34.2,53,967.5,0.0,0.6,114.0,34.4,2026-07-02T09:50:00+08:00,23.0,2026-07-02T05:10:00+08:00
員山,C0U990,宜蘭縣,員山鄉,31.0,24.744350,121.722472,2026-07-02T10:00:00+08:00,晴,32.3,68,1007.6,0.0,1.0,52.0,32.3,2026-07-02T08:50:00+08:00,25.2,2026-07-02T05:20:00+08:00
蘆竹,C0C620,桃園市,蘆竹區,19.0,25.084275,121.265767,2026-07-02T10:00:00+08:00,晴,31.1,76,1008.8,0.0,1.5,323.0,31.1,2026-07-02T10:00:00+08:00,26.8,2026-07-02T05:00:00+08:00
橫山,C0D540,新竹縣,橫山鄉,227.0,24.711158,121.116933,2026-07-02T10:00:00+08:00,多雲,28.4,85,987.6,0.5,0.2,0.0,29.7,2026-07-02T08:50:00+08:00,22.6,2026-07-02T04:20:00+08:00
新豐,C0D590,新竹縣,新豐鄉,143.0,24.870678,120.977211,2026-07-02T10:00:00+08:00,晴,29.4,81,997.2,0.0,0.2,0.0,29.4,2026-07-02T10:00:00+08:00,24.7,2026-07-02T05:40:00+08:00
雪霸,C0D550,新竹縣,五峰鄉,1956.0,24.526972,121.116050,2026-07-02T10:00:00+08:00,晴,23.5,72,814.1,0.0,0.0,0.0,24.2,2026-07-02T07:50:00+08:00,17.3,2026-07-02T01:00:00+08:00
竹東,C0D560,新竹縣,竹東鎮,147.0,24.767147,121.057881,2026-07-02T10:00:00+08:00,多雲,32.4,64,996.0,0.0,0.3,305.0,33.5,2026-07-02T09:20:00+08:00,25.2,2026-07-02T04:40:00+08:00
平鎮,C0C650,桃園市,平鎮區,208.0,24.897503,121.214636,2026-07-02T10:00:00+08:00,晴,29.1,76,988.5,0.0,0.0,0.0,29.2,2026-07-02T09:50:00+08:00,25.3,2026-07-02T05:00:00+08:00
大溪,C0C630,桃園市,大溪區,209.0,24.882853,121.265547,2026-07-02T10:00:00+08:00,晴,29.9,72,988.1,0.0,1.3,247.0,30.0,2026-07-02T09:50:00+08:00,25.2,2026-07-02T05:20:00+08:00
頭份,C0E730,苗栗縣,頭份市,26.0,24.688247,120.912206,2026-07-02T10:00:00+08:00,多雲,29.7,79,1007.7,0.0,0.4,49.0,30.4,2026-07-02T09:40:00+08:00,26.0,2026-07-02T05:40:00+08:00
寶山,C0D580,新竹縣,寶山鄉,120.0,24.735006,121.025192,2026-07-02T10:00:00+08:00,多雲,28.5,81,998.3,0.0,0.0,0.0,28.5,2026-07-02T10:00:00+08:00,24.0,2026-07-02T05:40:00+08:00
獅潭,C0E820,苗栗縣,獅潭鄉,220.0,24.539133,120.920042,2026-07-02T10:00:00+08:00,多雲,30.5,74,987.5,0.0,1.6,44.0,31.0,2026-07-02T09:50:00+08:00,23.6,2026-07-02T05:00:00+08:00
楊梅,C0C660,桃園市,楊梅區,176.0,24.912375,121.143047,2026-07-02T10:00:00+08:00,晴,28.9,77,992.5,0.0,1.5,281.0,29.6,2026-07-02T09:50:00+08:00,26.0,2026-07-02T05:10:00+08:00
湖口,C0D650,新竹縣,湖口鄉,97.0,24.904794,121.043628,2026-07-02T10:00:00+08:00,晴,28.8,76,1001.2,0.0,2.2,340.0,29.2,2026-07-02T09:30:00+08:00,26.1,2026-07-02T05:40:00+08:00
龍潭,C0C670,桃園市,龍潭區,250.0,24.870056,121.221389,2026-07-02T10:00:00+08:00,晴,-99,-99,-99,-99,-99,-99,26.9,2026-07-02T00:10:00+08:00,25.9,2026-07-02T02:00:00+08:00
新竹市東區,C0D660,新竹市,東區,65.0,24.798681,120.986942,2026-07-02T10:00:00+08:00,多雲,28.0,73,1004.5,0.0,2.2,280.0,30.3,2026-07-02T09:20:00+08:00,25.4,2026-07-02T04:50:00+08:00
大河,C0E850,苗栗縣,三灣鄉,104.0,24.618069,120.948578,2026-07-02T10:00:00+08:00,多雲,30.0,76,999.5,0.0,0.0,0.0,30.0,2026-07-02T10:00:00+08:00,24.5,2026-07-02T05:00:00+08:00
桃山,C0F9Y0,臺中市,和平區,3313.0,24.432739,121.303808,2026-07-02T10:00:00+08:00,晴,17.6,42,691.7,0.0,2.0,229.0,17.6,2026-07-02T10:00:00+08:00,7.7,2026-07-02T02:20:00+08:00
雪山東峰,C0F9Z0,臺中市,和平區,3193.0,24.388792,121.268675,2026-07-02T10:00:00+08:00,晴,18.7,48,701.3,0.0,1.2,65.0,18.7,2026-07-02T10:00:00+08:00,9.3,2026-07-02T05:30:00+08:00
雪山圈谷,C0F0A0,臺中市,和平區,3587.0,24.388594,121.236339,2026-07-02T10:00:00+08:00,晴,13.5,44,669.5,0.0,2.6,40.0,14.7,2026-07-02T08:50:00+08:00,3.5,2026-07-02T04:50:00+08:00
龜山,C0C680,桃園市,龜山區,228.0,25.028458,121.386561,2026-07-02T10:00:00+08:00,晴,30.8,71,984.5,0.0,0.7,240.0,30.8,2026-07-02T10:00:00+08:00,25.6,2026-07-02T03:50:00+08:00
審馬陣,C0F0D0,臺中市,和平區,3171.0,24.381675,121.420300,2026-07-02T10:00:00+08:00,晴,18.9,46,703.0,0.0,1.7,163.0,19.1,2026-07-02T09:50:00+08:00,8.7,2026-07-02T01:30:00+08:00
南湖圈谷,C0F0E0,臺中市,和平區,3557.0,24.363714,121.444667,2026-07-02T10:00:00+08:00,晴,14.4,43,671.3,0.0,2.2,178.0,15.0,2026-07-02T09:50:00+08:00,7.7,2026-07-02T02:00:00+08:00
苗栗,C0E750,苗栗縣,苗栗市,72.0,24.564569,120.824575,2026-07-02T10:00:00+08:00,多雲,29.4,77,1004.3,0.0,1.6,342.0,31.6,2026-07-02T09:00:00+08:00,26.6,2026-07-02T05:00:00+08:00
銅鑼,C0E780,苗栗縣,銅鑼鄉,160.0,24.489681,120.790853,2026-07-02T10:00:00+08:00,多雲,29.7,81,993.7,0.0,2.1,314.0,30.5,2026-07-02T08:40:00+08:00,26.2,2026-07-02T06:00:00+08:00
西湖,C0E810,苗栗縣,西湖鄉,53.0,24.562947,120.748500,2026-07-02T10:00:00+08:00,陰,29.7,85,1006.6,0.0,1.3,1.0,29.9,2026-07-02T08:10:00+08:00,25.4,2026-07-02T05:30:00+08:00
大安,C0F9K0,臺中市,大安區,30.0,24.345061,120.588025,2026-07-02T10:00:00+08:00,多雲,30.3,77,1007.3,0.0,2.7,360.0,30.3,2026-07-02T10:00:00+08:00,27.3,2026-07-02T00:30:00+08:00
后里,C0F9L0,臺中市,后里區,253.0,24.310436,120.729725,2026-07-02T10:00:00+08:00,多雲,29.3,81,983.6,0.0,1.1,332.0,29.7,2026-07-02T09:40:00+08:00,26.1,2026-07-02T03:00:00+08:00
豐原,C0F9M0,臺中市,豐原區,230.0,24.254322,120.720692,2026-07-02T10:00:00+08:00,多雲,31.3,74,984.5,0.0,1.5,324.0,31.3,2026-07-02T08:10:00+08:00,28.6,2026-07-02T03:20:00+08:00
潭子,C0F9O0,臺中市,潭子區,175.0,24.213106,120.703933,2026-07-02T10:00:00+08:00,晴,30.2,79,990.4,0.0,1.3,295.0,30.8,2026-07-02T09:50:00+08:00,27.0,2026-07-02T03:00:00+08:00
清水,C0F9P0,臺中市,清水區,26.0,24.312297,120.562242,2026-07-02T10:00:00+08:00,多雲,31.9,73,1007.8,0.0,1.5,23.0,31.9,2026-07-02T10:00:00+08:00,27.2,2026-07-02T01:50:00+08:00
外埔,C0F9Q0,臺中市,外埔區,149.0,24.347817,120.705686,2026-07-02T10:00:00+08:00,多雲,31.4,86,994.1,0.0,1.1,340.0,31.5,2026-07-02T09:10:00+08:00,28.3,2026-07-02T03:20:00+08:00
龍井,C0F9R0,臺中市,龍井區,20.0,24.184536,120.528972,2026-07-02T10:00:00+08:00,晴,31.3,74,1009.0,0.0,2.8,326.0,31.7,2026-07-02T09:50:00+08:00,28.3,2026-07-02T02:00:00+08:00
伸港,C0G890,彰化縣,伸港鄉,24.0,24.148933,120.484403,2026-07-02T10:00:00+08:00,晴,31.2,75,1008.4,0.0,2.9,295.0,31.2,2026-07-02T10:00:00+08:00,27.6,2026-07-02T04:10:00+08:00
苑裡,C0E830,苗栗縣,苑裡鎮,37.0,24.439714,120.653053,2026-07-02T10:00:00+08:00,多雲,30.2,76,1007.1,0.0,2.1,331.0,30.2,2026-07-02T09:50:00+08:00,27.1,2026-07-02T02:00:00+08:00
石岡,C0F0B0,臺中市,石岡區,311.0,24.276061,120.777644,2026-07-02T10:00:00+08:00,多雲,29.7,81,974.8,0.0,2.8,307.0,29.9,2026-07-02T08:50:00+08:00,24.5,2026-07-02T05:30:00+08:00
中坑,C0F0C0,臺中市,和平區,983.0,24.248517,120.903319,2026-07-02T10:00:00+08:00,晴,25.9,87,905.6,0.0,1.2,201.0,26.3,2026-07-02T08:50:00+08:00,22.7,2026-07-02T01:00:00+08:00
魚池,C0I370,南投縣,魚池鄉,671.0,23.895703,120.941350,2026-07-02T10:00:00+08:00,晴,29.6,65,938.9,0.0,1.2,337.0,29.6,2026-07-02T10:00:00+08:00,22.9,2026-07-02T05:30:00+08:00
國姓,C0I420,南投縣,國姓鄉,305.0,24.037803,120.855072,2026-07-02T10:00:00+08:00,晴,31.4,67,977.5,0.0,2.9,217.0,31.4,2026-07-02T10:00:00+08:00,24.9,2026-07-02T04:50:00+08:00
仁愛,C0I390,南投縣,仁愛鄉,1184.0,24.022122,121.132206,2026-07-02T10:00:00+08:00,晴,25.7,66,887.4,0.0,1.7,269.0,26.5,2026-07-02T08:50:00+08:00,18.8,2026-07-02T05:00:00+08:00
水里,C0I360,南投縣,水里鄉,300.0,23.812553,120.849792,2026-07-02T10:00:00+08:00,晴,30.1,71,977.1,0.0,3.3,288.0,30.1,2026-07-02T10:00:00+08:00,25.2,2026-07-02T06:00:00+08:00
集集,C0I380,南投縣,集集鎮,258.0,23.828206,120.801467,2026-07-02T10:00:00+08:00,晴,31.2,73,982.0,0.0,1.1,270.0,31.4,2026-07-02T09:20:00+08:00,24.8,2026-07-02T05:30:00+08:00
名間,C0I410,南投縣,名間鄉,180.0,23.837053,120.701447,2026-07-02T10:00:00+08:00,晴,30.8,75,991.1,0.0,0.2,0.0,30.8,2026-07-02T10:00:00+08:00,25.0,2026-07-02T05:20:00+08:00
萬大林道,C0I490,南投縣,仁愛鄉,1601.0,23.928228,121.091411,2026-07-02T10:00:00+08:00,晴,24.2,71,844.2,0.0,1.7,249.0,24.5,2026-07-02T09:40:00+08:00,18.4,2026-07-02T00:30:00+08:00
梅峰,C0I480,南投縣,仁愛鄉,2165.0,24.085272,121.173572,2026-07-02T10:00:00+08:00,晴,22.3,67,791.9,0.0,1.3,5.0,23.8,2026-07-02T09:30:00+08:00,12.7,2026-07-02T05:20:00+08:00
玉山風口,C0I520,南投縣,信義鄉,3860.0,23.470489,120.955994,2026-07-02T10:00:00+08:00,-99,10.7,64,647.5,-99,0.7,282.0,10.7,2026-07-02T10:00:00+08:00,5.0,2026-07-02T01:00:00+08:00
小奇萊,C0I530,南投縣,仁愛鄉,3014.0,24.131764,121.295717,2026-07-02T10:00:00+08:00,晴,17.1,47,707.1,0.0,3.0,189.0,17.1,2026-07-02T10:00:00+08:00,10.0,2026-07-02T02:10:00+08:00
奇萊稜線,C0I540,南投縣,仁愛鄉,3344.0,24.109231,121.326456,2026-07-02T10:00:00+08:00,晴,14.1,57,688.2,-99,2.5,257.0,14.1,2026-07-02T10:00:00+08:00,8.5,2026-07-02T02:20:00+08:00
大里,C0F9N0,臺中市,大里區,75.0,24.092464,120.701378,2026-07-02T10:00:00+08:00,晴,30.9,74,1003.1,0.0,1.9,247.0,31.6,2026-07-02T09:20:00+08:00,28.2,2026-07-02T04:00:00+08:00
烏日,C0F9S0,臺中市,烏日區,43.0,24.107058,120.624103,2026-07-02T10:00:00+08:00,晴,32.2,69,1005.7,0.0,2.0,242.0,32.4,2026-07-02T09:20:00+08:00,27.7,2026-07-02T05:10:00+08:00
西屯,C0F9T0,臺中市,西屯區,111.0,24.179494,120.641275,2026-07-02T10:00:00+08:00,晴,30.3,76,998.5,0.0,1.6,295.0,31.2,2026-07-02T09:30:00+08:00,27.2,2026-07-02T02:30:00+08:00
南屯,C0F9U0,臺中市,南屯區,74.0,24.137006,120.637969,2026-07-02T10:00:00+08:00,晴,32.0,68,1002.8,0.0,2.5,276.0,33.1,2026-07-02T09:50:00+08:00,27.7,2026-07-02T05:40:00+08:00
福興,C0G770,彰化縣,福興鄉,15.0,24.041289,120.437669,2026-07-02T10:00:00+08:00,晴,32.0,72,1008.9,0.0,1.3,324.0,32.0,2026-07-02T10:00:00+08:00,28.5,2026-07-02T02:10:00+08:00
秀水,C0G780,彰化縣,秀水鄉,27.0,24.034050,120.503869,2026-07-02T10:00:00+08:00,晴,31.9,75,1008.6,0.0,4.6,309.0,31.9,2026-07-02T10:00:00+08:00,29.1,2026-07-02T03:20:00+08:00
埔鹽,C0G800,彰化縣,埔鹽鄉,15.0,24.000394,120.431683,2026-07-02T10:00:00+08:00,晴,31.7,78,1010.3,0.0,1.5,334.0,32.1,2026-07-02T09:00:00+08:00,28.3,2026-07-02T02:50:00+08:00
埔心,C0G810,彰化縣,埔心鄉,26.0,23.947633,120.525456,2026-07-02T10:00:00+08:00,晴,32.1,76,1007.0,0.0,1.2,299.0,33.3,2026-07-02T09:40:00+08:00,29.1,2026-07-02T06:20:00+08:00
田尾,C0G820,彰化縣,田尾鄉,29.0,23.901669,120.509389,2026-07-02T10:00:00+08:00,晴,33.2,81,1006.9,0.0,1.1,283.0,33.4,2026-07-02T09:20:00+08:00,28.6,2026-07-02T04:00:00+08:00
埤頭,C0G830,彰化縣,埤頭鄉,27.0,23.866003,120.452806,2026-07-02T10:00:00+08:00,晴,32.9,80,1007.8,0.0,1.3,282.0,33.1,2026-07-02T09:40:00+08:00,28.7,2026-07-02T03:20:00+08:00
社頭,C0G860,彰化縣,社頭鄉,45.0,23.897647,120.586200,2026-07-02T10:00:00+08:00,晴,32.2,79,1006.5,0.0,1.6,270.0,32.5,2026-07-02T09:50:00+08:00,27.9,2026-07-02T05:20:00+08:00
二水,C0G880,彰化縣,二水鄉,92.0,23.810742,120.617300,2026-07-02T10:00:00+08:00,多雲,32.7,76,1000.9,0.0,1.3,236.0,33.3,2026-07-02T09:50:00+08:00,28.1,2026-07-02T04:50:00+08:00
造橋,C0E740,苗栗縣,造橋鄉,27.0,24.637056,120.864778,2026-07-02T10:00:00+08:00,多雲,30.6,78,1008.9,0.0,0.6,336.0,32.0,2026-07-02T09:30:00+08:00,25.6,2026-07-02T05:10:00+08:00
梅花,C0D360,新竹縣,尖石鄉,523.0,24.678347,121.208558,2026-07-02T10:00:00+08:00,晴,29.1,75,952.9,0.0,0.3,355.0,29.1,2026-07-02T10:00:00+08:00,21.1,2026-07-02T04:50:00+08:00
坪林,C0A530,新北市,坪林區,300.0,24.938183,121.709750,2026-07-02T10:00:00+08:00,晴,33.2,75,976.0,0.0,0.4,85.0,33.2,2026-07-02T10:00:00+08:00,20.9,2026-07-02T05:00:00+08:00
泰平,C0A550,新北市,雙溪區,422.0,24.971197,121.823711,2026-07-02T10:00:00+08:00,晴,-99,-99,-99,0.0,-99,-99,30.9,2026-07-02T09:50:00+08:00,21.5,2026-07-02T05:10:00+08:00
五指山,C0A870,新北市,汐止區,685.0,25.132153,121.608692,2026-07-02T10:00:00+08:00,晴,28.8,85,932.9,0.0,0.6,35.0,29.5,2026-07-02T08:00:00+08:00,25.5,2026-07-02T04:10:00+08:00
汐止,C0AH00,新北市,汐止區,38.0,25.066881,121.658778,2026-07-02T10:00:00+08:00,晴,32.3,78,1005.6,0.0,2.8,67.0,32.3,2026-07-02T10:00:00+08:00,27.1,2026-07-02T05:40:00+08:00
三峽,C0AC60,新北市,三峽區,55.0,24.939025,121.369728,2026-07-02T10:00:00+08:00,晴,32.5,72,1006.0,0.0,0.4,306.0,32.8,2026-07-02T09:10:00+08:00,26.9,2026-07-02T05:30:00+08:00
信義,C0AC70,臺北市,信義區,71.0,25.037822,121.564597,2026-07-02T10:00:00+08:00,晴,33.2,62,1003.0,0.0,0.1,0.0,33.2,2026-07-02T10:00:00+08:00,26.9,2026-07-02T05:20:00+08:00
文山,C0AC80,臺北市,文山區,40.0,25.002350,121.575728,2026-07-02T10:00:00+08:00,晴,32.0,72,1005.3,0.0,0.6,109.0,32.1,2026-07-02T09:30:00+08:00,25.2,2026-07-02T05:20:00+08:00
新莊,C0ACA0,新北市,新莊區,25.0,25.051478,121.446756,2026-07-02T10:00:00+08:00,晴,32.0,70,1007.7,0.0,1.6,53.0,32.2,2026-07-02T09:50:00+08:00,27.7,2026-07-02T04:30:00+08:00
山佳,C0A520,新北市,樹林區,48.0,24.974944,121.402008,2026-07-02T10:00:00+08:00,晴,32.6,74,1005.4,0.0,0.8,191.0,32.6,2026-07-02T10:00:00+08:00,27.1,2026-07-02T04:50:00+08:00
桶後,C0A570,新北市,烏來區,360.0,24.848222,121.597992,2026-07-02T10:00:00+08:00,晴,30.1,72,970.4,0.0,0.2,0.0,31.1,2026-07-02T09:40:00+08:00,21.3,2026-07-02T05:50:00+08:00
雙溪,C0A890,新北市,雙溪區,40.0,25.036003,121.864242,2026-07-02T10:00:00+08:00,晴,-99,-99,-99,0.0,-99,-99,31.6,2026-07-02T09:50:00+08:00,25.3,2026-07-02T06:00:00+08:00
多加屯,C0UA20,宜蘭縣,大同鄉,2619.0,24.368614,121.373189,2026-07-02T10:00:00+08:00,晴,-99,-99,742.3,0.0,0.9,318.0,-99,-99,-99,-99
鼻頭角,C0A950,新北市,瑞芳區,60.0,25.129036,121.923372,2026-07-02T10:00:00+08:00,多雲,30.8,82,1005.2,0.0,0.5,33.0,30.9,2026-07-02T09:50:00+08:00,27.3,2026-07-02T03:10:00+08:00
大坪,C0A860,新北市,萬里區,362.0,25.165914,121.632969,2026-07-02T10:00:00+08:00,晴,31.7,70,971.5,0.0,0.9,52.0,31.7,2026-07-02T10:00:00+08:00,23.1,2026-07-02T04:50:00+08:00
三和,C0A931,新北市,金山區,216.0,25.233153,121.595236,2026-07-02T10:00:00+08:00,晴,29.6,86,985.1,0.0,1.0,138.0,29.9,2026-07-02T06:50:00+08:00,22.5,2026-07-02T05:30:00+08:00
金山,C0A940,新北市,金山區,49.0,25.223628,121.643967,2026-07-02T10:00:00+08:00,晴,30.0,76,1007.5,0.0,0.3,110.0,30.0,2026-07-02T10:00:00+08:00,24.7,2026-07-02T04:50:00+08:00
石碇,C0A640,新北市,石碇區,241.0,24.993969,121.662917,2026-07-02T10:00:00+08:00,晴,29.0,77,986.5,0.0,1.8,301.0,29.0,2026-07-02T10:00:00+08:00,23.2,2026-07-02T05:30:00+08:00
復興,C0C460,桃園市,復興區,482.0,24.820208,121.352281,2026-07-02T10:00:00+08:00,晴,27.1,84,959.8,0.0,0.5,264.0,27.1,2026-07-02T10:00:00+08:00,24.5,2026-07-02T07:20:00+08:00
八德,C0C490,桃園市,八德區,157.0,24.928708,121.283289,2026-07-02T10:00:00+08:00,晴,29.8,74,993.9,0.0,1.7,319.0,30.2,2026-07-02T09:20:00+08:00,26.4,2026-07-02T05:50:00+08:00
內湖,C0A9F0,臺北市,內湖區,35.0,25.079422,121.575450,2026-07-02T10:00:00+08:00,晴,32.3,71,1007.1,0.0,0.8,151.0,32.3,2026-07-02T10:00:00+08:00,29.1,2026-07-02T05:40:00+08:00
中和,C0AG80,新北市,中和區,48.0,24.991622,121.491792,2026-07-02T10:00:00+08:00,晴,32.3,62,1006.3,0.0,1.9,255.0,32.3,2026-07-02T09:20:00+08:00,26.9,2026-07-02T04:50:00+08:00
暖暖,C0B060,基隆市,暖暖區,83.0,25.095742,121.740300,2026-07-02T10:00:00+08:00,晴,32.1,76,1001.3,0.0,2.2,112.0,32.1,2026-07-02T10:00:00+08:00,25.6,2026-07-02T04:30:00+08:00
天母,C0A9C0,臺北市,士林區,35.0,25.117494,121.537169,2026-07-02T10:00:00+08:00,晴,32.7,69,1008.3,0.0,1.3,222.0,33.4,2026-07-02T09:50:00+08:00,26.6,2026-07-02T05:10:00+08:00
社子,C0A980,臺北市,士林區,11.0,25.109508,121.469681,2026-07-02T10:00:00+08:00,晴,32.6,70,1011.0,0.0,1.7,341.0,33.1,2026-07-02T07:50:00+08:00,26.8,2026-07-02T05:20:00+08:00
大屯山,C0AC40,臺北市,北投區,1079.0,25.175675,121.522408,2026-07-02T10:00:00+08:00,晴,27.4,95,895.5,0.0,1.5,14.0,28.3,2026-07-02T08:00:00+08:00,24.4,2026-07-02T01:40:00+08:00
八里,C0AD10,新北市,八里區,27.0,25.150211,121.403947,2026-07-02T10:00:00+08:00,晴,29.4,85,1007.6,0.0,2.3,276.0,30.0,2026-07-02T06:40:00+08:00,27.9,2026-07-02T04:50:00+08:00
蘆洲,C0AD30,新北市,蘆洲區,20.0,25.086594,121.472331,2026-07-02T10:00:00+08:00,晴,32.3,71,1007.5,0.0,0.9,316.0,32.4,2026-07-02T09:40:00+08:00,28.4,2026-07-02T05:50:00+08:00
土城,C0AD40,新北市,土城區,32.0,24.973208,121.445169,2026-07-02T10:00:00+08:00,晴,30.7,70,1006.6,0.0,0.1,0.0,30.7,2026-07-02T10:00:00+08:00,24.6,2026-07-02T05:30:00+08:00
鶯歌,C0AD50,新北市,鶯歌區,84.0,24.951533,121.346294,2026-07-02T10:00:00+08:00,晴,-99,-99,-99,-99,-99,-99,-99,-99,-99,-99
永和,C0AH10,新北市,永和區,30.0,25.011250,121.508111,2026-07-02T10:00:00+08:00,晴,-99,-99,-99,0.0,-99,-99,30.9,2026-07-02T09:10:00+08:00,27.6,2026-07-02T06:00:00+08:00
五分山,C0AH30,新北市,瑞芳區,755.0,25.071250,121.780794,2026-07-02T10:00:00+08:00,晴,28.8,82,927.3,0.0,0.7,354.0,30.2,2026-07-02T07:30:00+08:00,24.7,2026-07-02T03:30:00+08:00
平等,C0AH40,臺北市,士林區,426.0,25.129142,121.577086,2026-07-02T10:00:00+08:00,晴,30.0,87,962.8,0.0,1.7,124.0,30.0,2026-07-02T10:00:00+08:00,24.4,2026-07-02T03:30:00+08:00
林口,C0AH50,新北市,林口區,275.0,25.072181,121.380839,2026-07-02T10:00:00+08:00,晴,29.2,88,980.9,0.0,1.9,309.0,29.2,2026-07-02T10:00:00+08:00,26.8,2026-07-02T04:50:00+08:00
深坑,C0AH80,新北市,深坑區,68.0,25.002703,121.628328,2026-07-02T10:00:00+08:00,晴,32.1,75,1001.0,0.0,1.3,316.0,32.1,2026-07-02T10:00:00+08:00,25.0,2026-07-02T05:10:00+08:00
七堵,C0B010,基隆市,七堵區,38.0,25.094819,121.717128,2026-07-02T10:00:00+08:00,晴,30.9,81,1006.3,0.0,4.3,48.0,31.2,2026-07-02T09:00:00+08:00,27.1,2026-07-02T05:00:00+08:00
五股,C0AI00,新北市,五股區,188.0,25.074453,121.427281,2026-07-02T10:00:00+08:00,晴,32.8,76,991.1,0.0,1.4,341.0,32.8,2026-07-02T10:00:00+08:00,26.7,2026-07-02T03:40:00+08:00
屈尺,C0AI10,新北市,新店區,76.0,24.921836,121.544725,2026-07-02T10:00:00+08:00,晴,33.5,67,1001.6,0.0,1.5,28.0,33.5,2026-07-02T10:00:00+08:00,27.0,2026-07-02T05:40:00+08:00
三重,C0AI30,新北市,三重區,26.0,25.057378,121.500625,2026-07-02T10:00:00+08:00,晴,32.7,72,1009.0,0.0,2.7,57.0,32.7,2026-07-02T09:50:00+08:00,28.4,2026-07-02T05:20:00+08:00
石牌,C0AI40,臺北市,北投區,37.0,25.115597,121.513139,2026-07-02T10:00:00+08:00,晴,31.2,77,1007.7,0.0,1.8,305.0,31.2,2026-07-02T09:50:00+08:00,29.2,2026-07-02T05:30:00+08:00
金峰嘉蘭,C0S920,臺東縣,金峰鄉,98.0,22.594789,120.960825,2026-07-02T10:00:00+08:00,多雲,30.8,66,997.1,0.0,1.3,119.0,31.2,2026-07-02T09:50:00+08:00,23.2,2026-07-02T03:30:00+08:00
延平,C0S930,臺東縣,延平鄉,248.0,22.902581,121.084058,2026-07-02T10:00:00+08:00,晴,31.6,66,985.4,0.0,1.0,99.0,31.6,2026-07-02T10:00:00+08:00,24.0,2026-07-02T02:50:00+08:00
石寧山,C0S940,臺東縣,長濱鄉,150.0,23.223772,121.406639,2026-07-02T10:00:00+08:00,晴,30.8,78,995.5,0.0,2.7,182.0,31.0,2026-07-02T08:00:00+08:00,24.5,2026-07-02T05:20:00+08:00
七塊厝,C0S950,臺東縣,東河鄉,411.0,22.955719,121.229167,2026-07-02T10:00:00+08:00,晴,31.9,64,967.9,0.0,0.4,113.0,31.9,2026-07-02T10:00:00+08:00,22.7,2026-07-02T05:30:00+08:00
知本(水試所),C0SA60,臺東縣,臺東市,6.0,22.702247,121.082664,2026-07-02T10:00:00+08:00,多雲,33.5,68,1011.9,0.0,1.7,141.0,34.9,2026-07-02T08:50:00+08:00,26.1,2026-07-02T03:30:00+08:00
香蘭,C0S960,臺東縣,太麻里鄉,32.0,22.587569,120.993375,2026-07-02T10:00:00+08:00,多雲,31.3,67,1009.2,0.0,1.5,108.0,32.3,2026-07-02T08:30:00+08:00,26.7,2026-07-02T03:40:00+08:00
加津林,C0S970,臺東縣,大武鄉,19.0,22.416211,120.926942,2026-07-02T10:00:00+08:00,陰,29.9,81,1010.8,0.0,2.8,49.0,30.4,2026-07-02T09:50:00+08:00,26.9,2026-07-02T03:10:00+08:00
勝林山,C0S980,臺東縣,達仁鄉,901.0,22.430439,120.893800,2026-07-02T10:00:00+08:00,陰,23.3,96,915.5,4.5,0.9,45.0,23.9,2026-07-02T08:20:00+08:00,20.7,2026-07-02T04:50:00+08:00
山豬窟,C0S990,臺東縣,大武鄉,409.0,22.318619,120.857372,2026-07-02T10:00:00+08:00,陰有雨,24.2,100,968.1,15.0,2.8,21.0,24.6,2026-07-02T00:40:00+08:00,24.1,2026-07-02T06:10:00+08:00
歷坵,C0SA00,臺東縣,太麻里鄉,466.0,22.520969,120.891850,2026-07-02T10:00:00+08:00,陰,27.4,83,961.2,0.0,0.7,130.0,28.2,2026-07-02T08:40:00+08:00,21.9,2026-07-02T03:30:00+08:00
檳榔四格山,C0SA10,臺東縣,卑南鄉,411.0,22.810031,121.109308,2026-07-02T10:00:00+08:00,晴,31.3,74,967.7,0.0,0.2,0.0,32.8,2026-07-02T09:40:00+08:00,23.8,2026-07-02T04:30:00+08:00
金崙山,C0SA20,臺東縣,太麻里鄉,857.0,22.567419,120.959667,2026-07-02T10:00:00+08:00,陰,26.5,82,920.0,0.0,1.1,60.0,26.5,2026-07-02T10:00:00+08:00,20.0,2026-07-02T03:20:00+08:00
都歷,C0SA30,臺東縣,成功鎮,92.0,23.020333,121.323642,2026-07-02T10:00:00+08:00,晴,30.5,75,1003.6,0.0,3.6,170.0,31.3,2026-07-02T08:40:00+08:00,27.3,2026-07-02T03:40:00+08:00
達仁林場,C0SA90,臺東縣,達仁鄉,497.0,22.264347,120.823972,2026-07-02T10:00:00+08:00,陰有雨,24.2,100,957.3,15.0,1.1,55.0,24.3,2026-07-02T09:00:00+08:00,23.5,2026-07-02T05:40:00+08:00
牡丹池山,C0R840,屏東縣,牡丹鄉,536.0,22.168389,120.841225,2026-07-02T10:00:00+08:00,多雲有雨,24.8,100,953.9,18.5,1.7,88.0,24.8,2026-07-02T10:00:00+08:00,22.6,2026-07-02T05:20:00+08:00
高士,C0R830,屏東縣,牡丹鄉,383.0,22.121825,120.836781,2026-07-02T10:00:00+08:00,多雲有雨,24.7,100,970.0,36.5,2.9,2.0,24.7,2026-07-02T10:00:00+08:00,23.1,2026-07-02T05:20:00+08:00
白鷺,C0R820,屏東縣,來義鄉,588.0,22.454275,120.666219,2026-07-02T10:00:00+08:00,多雲,29.8,70,947.8,0.0,0.9,202.0,29.8,2026-07-02T10:00:00+08:00,23.5,2026-07-02T01:00:00+08:00
內獅,C0R810,屏東縣,獅子鄉,25.0,22.305064,120.642986,2026-07-02T10:00:00+08:00,陰,33.2,68,1009.4,0.0,2.9,155.0,33.3,2026-07-02T09:50:00+08:00,27.0,2026-07-02T02:40:00+08:00
丹路,C0R800,屏東縣,獅子鄉,131.0,22.204481,120.750989,2026-07-02T10:00:00+08:00,多雲有雨,27.4,100,997.4,3.5,1.9,55.0,27.6,2026-07-02T00:10:00+08:00,26.3,2026-07-02T06:00:00+08:00
九棚,C0R790,屏東縣,滿州鄉,111.0,22.142069,120.894356,2026-07-02T10:00:00+08:00,多雲有雨,26.4,96,1001.2,17.5,5.2,14.0,26.6,2026-07-02T01:00:00+08:00,24.7,2026-07-02T05:20:00+08:00
滿州,C0R780,屏東縣,滿州鄉,72.0,22.024403,120.839892,2026-07-02T10:00:00+08:00,多雲有雨,29.6,84,1006.0,24.0,5.5,122.0,29.6,2026-07-02T10:00:00+08:00,25.7,2026-07-02T04:40:00+08:00
保力,C0R770,屏東縣,車城鄉,93.0,22.071122,120.764111,2026-07-02T10:00:00+08:00,多雲有雨,29.5,88,1002.0,18.5,1.9,77.0,29.5,2026-07-02T10:00:00+08:00,25.4,2026-07-02T05:00:00+08:00
南仁湖,C0R760,屏東縣,滿州鄉,336.0,22.084681,120.863353,2026-07-02T10:00:00+08:00,多雲,25.4,100,975.4,59.0,3.4,167.0,25.5,2026-07-02T09:50:00+08:00,24.0,2026-07-02T05:20:00+08:00
合歡山頂,C0H9C0,南投縣,仁愛鄉,3402.0,24.143442,121.272547,2026-07-02T10:00:00+08:00,晴,16.1,54,682.8,0.0,3.2,197.0,16.8,2026-07-02T09:00:00+08:00,9.6,2026-07-02T02:10:00+08:00
大坑,C0F970,臺中市,北屯區,145.0,24.173142,120.722289,2026-07-02T10:00:00+08:00,晴,32.3,72,994.5,0.0,0.7,267.0,32.3,2026-07-02T10:00:00+08:00,28.1,2026-07-02T03:20:00+08:00
溪湖,C0G660,彰化縣,溪湖鎮,27.0,23.948350,120.479122,2026-07-02T10:00:00+08:00,晴,32.2,75,1009.2,0.0,2.0,292.0,32.7,2026-07-02T09:40:00+08:00,28.6,2026-07-02T03:20:00+08:00
員林,C0G650,彰化縣,員林市,34.0,23.946503,120.585597,2026-07-02T10:00:00+08:00,晴,33.9,72,1006.4,0.5,1.6,243.0,34.4,2026-07-02T09:40:00+08:00,28.5,2026-07-02T05:20:00+08:00
草屯,C0H960,南投縣,草屯鎮,120.0,23.973672,120.680850,2026-07-02T10:00:00+08:00,晴,32.3,67,998.2,0.0,0.7,238.0,32.3,2026-07-02T10:00:00+08:00,27.1,2026-07-02T05:50:00+08:00
芬園,C0G620,彰化縣,芬園鄉,110.0,24.015678,120.621300,2026-07-02T10:00:00+08:00,晴,-99,-99,-99,-99,-99,-99,32.4,2026-07-02T10:00:00+08:00,26.1,2026-07-02T01:50:00+08:00
東勢,C0F850,臺中市,東勢區,379.0,24.246428,120.833047,2026-07-02T10:00:00+08:00,晴,31.4,76,969.4,0.0,1.6,322.0,32.3,2026-07-02T09:20:00+08:00,27.2,2026-07-02T05:40:00+08:00
竹山,C0I110,南投縣,竹山鎮,161.0,23.761225,120.688156,2026-07-02T10:00:00+08:00,晴,32.1,64,993.7,0.0,0.8,264.0,32.3,2026-07-02T09:50:00+08:00,26.0,2026-07-02T05:00:00+08:00
馬都安,C0E610,苗栗縣,泰安鄉,850.0,24.451272,120.930192,2026-07-02T10:00:00+08:00,多雲,24.9,90,920.4,0.0,0.0,0.0,25.1,2026-07-02T09:00:00+08:00,22.4,2026-07-02T00:10:00+08:00
明德,C0E550,苗栗縣,頭屋鄉,84.0,24.583486,120.885411,2026-07-02T10:00:00+08:00,多雲,30.3,76,1003.5,0.0,1.0,66.0,30.3,2026-07-02T10:00:00+08:00,26.3,2026-07-02T04:40:00+08:00
通霄,C0E590,苗栗縣,通霄鎮,40.0,24.471892,120.704622,2026-07-02T10:00:00+08:00,多雲,29.9,81,1006.5,0.0,1.5,336.0,29.9,2026-07-02T10:00:00+08:00,26.1,2026-07-02T02:50:00+08:00
神岡,C0F9I0,臺中市,神岡區,194.0,24.272481,120.658314,2026-07-02T10:00:00+08:00,多雲,29.7,80,989.6,0.0,2.0,349.0,30.6,2026-07-02T07:40:00+08:00,26.1,2026-07-02T02:40:00+08:00
卓蘭,C0E791,苗栗縣,卓蘭鎮,344.0,24.312558,120.824361,2026-07-02T10:00:00+08:00,多雲,29.7,81,970.6,0.0,2.2,286.0,30.3,2026-07-02T09:20:00+08:00,25.2,2026-07-02T04:50:00+08:00
新社,C0F9V0,臺中市,新社區,525.0,24.200172,120.815806,2026-07-02T10:00:00+08:00,晴,27.5,90,951.4,0.0,2.6,293.0,28.9,2026-07-02T09:10:00+08:00,23.7,2026-07-02T05:50:00+08:00
埔里,C0H890,南投縣,埔里鎮,440.0,23.972169,120.952425,2026-07-02T10:00:00+08:00,晴,30.5,65,962.1,0.0,2.3,307.0,30.7,2026-07-02T09:10:00+08:00,24.5,2026-07-02T05:40:00+08:00
信義,C0I080,南投縣,信義鄉,536.0,23.689694,120.851036,2026-07-02T10:00:00+08:00,晴,31.4,64,955.2,0.0,0.7,23.0,32.0,2026-07-02T09:50:00+08:00,22.6,2026-07-02T05:50:00+08:00
昆陽,C0H990,南投縣,仁愛鄉,3076.0,24.121322,121.273642,2026-07-02T10:00:00+08:00,晴,17.2,54,710.9,0.0,1.9,227.0,17.2,2026-07-02T10:00:00+08:00,9.4,2026-07-02T04:50:00+08:00
廬山,C0I010,南投縣,仁愛鄉,1562.0,24.033311,121.181808,2026-07-02T10:00:00+08:00,晴,23.9,68,850.3,0.0,1.0,291.0,25.7,2026-07-02T08:30:00+08:00,18.7,2026-07-02T01:30:00+08:00
大禹嶺,C0T790,花蓮縣,秀林鄉,2830.0,24.186117,121.316086,2026-07-02T10:00:00+08:00,晴,-99,-99,-99,-99,-99,-99,-99,-99,-99,-99
神木村,C0H9A0,南投縣,信義鄉,1595.0,23.532742,120.843667,2026-07-02T10:00:00+08:00,晴,28.8,59,848.1,0.0,0.9,106.0,28.8,2026-07-02T10:00:00+08:00,18.3,2026-07-02T05:40:00+08:00
大雅,C0F9X0,臺中市,大雅區,166.0,24.215281,120.624450,2026-07-02T10:00:00+08:00,晴,30.5,78,992.3,0.0,1.7,2.0,30.5,2026-07-02T10:00:00+08:00,26.5,2026-07-02T05:00:00+08:00
南投,C0I460,南投縣,南投市,110.0,23.911469,120.687331,2026-07-02T10:00:00+08:00,晴,32.4,67,999.3,0.0,0.8,181.0,32.4,2026-07-02T10:00:00+08:00,26.7,2026-07-02T05:40:00+08:00
花壇,C0G910,彰化縣,花壇鄉,42.0,24.030322,120.549461,2026-07-02T10:00:00+08:00,晴,31.5,82,1007.2,0.0,3.7,269.0,32.0,2026-07-02T09:50:00+08:00,29.1,2026-07-02T03:00:00+08:00
線西,C0G900,彰化縣,線西鄉,20.0,24.143358,120.443536,2026-07-02T10:00:00+08:00,晴,31.0,76,1008.0,0.0,1.9,340.0,31.1,2026-07-02T08:20:00+08:00,28.2,2026-07-02T04:00:00+08:00
霧峰,C0FA50,臺中市,霧峰區,58.0,24.041897,120.699472,2026-07-02T10:00:00+08:00,晴,33.2,64,1002.0,0.0,1.1,268.0,33.2,2026-07-02T10:00:00+08:00,25.5,2026-07-02T03:10:00+08:00
虎尾,C0K330,雲林縣,虎尾鎮,38.0,23.719183,120.442036,2026-07-02T10:00:00+08:00,多雲,32.9,63,1007.0,0.0,0.5,247.0,32.9,2026-07-02T10:00:00+08:00,27.4,2026-07-02T03:00:00+08:00
宜梧,C0K291,雲林縣,口湖鄉,8.0,23.536267,120.169311,2026-07-02T10:00:00+08:00,晴,30.4,81,1011.3,0.0,2.5,297.0,31.2,2026-07-02T08:50:00+08:00,27.6,2026-07-02T03:20:00+08:00
東後寮,C0M520,嘉義縣,義竹鄉,15.0,23.369892,120.248047,2026-07-02T10:00:00+08:00,晴,31.5,72,1009.5,0.0,1.6,255.0,31.6,2026-07-02T09:20:00+08:00,26.8,2026-07-02T03:30:00+08:00
東河,C0X050,臺南市,東山區,25.0,23.296581,120.385592,2026-07-02T10:00:00+08:00,多雲,31.9,64,1007.9,0.0,1.9,231.0,33.0,2026-07-02T09:40:00+08:00,26.0,2026-07-02T03:30:00+08:00
佳里,C0X080,臺南市,佳里區,2.0,23.173039,120.145086,2026-07-02T10:00:00+08:00,晴,31.6,83,1011.3,0.0,2.6,270.0,31.6,2026-07-02T09:50:00+08:00,27.1,2026-07-02T03:50:00+08:00
二林,C0G730,彰化縣,二林鎮,27.0,23.903319,120.376069,2026-07-02T10:00:00+08:00,晴,30.6,91,1009.5,0.0,2.1,336.0,31.3,2026-07-02T09:20:00+08:00,27.2,2026-07-02T02:10:00+08:00
白河,C0X210,臺南市,白河區,38.0,23.347467,120.414428,2026-07-02T10:00:00+08:00,多雲,30.7,74,1005.8,0.0,1.4,313.0,31.5,2026-07-02T08:20:00+08:00,26.1,2026-07-02T04:00:00+08:00
番路,C0M720,嘉義縣,番路鄉,225.0,23.464644,120.554144,2026-07-02T10:00:00+08:00,多雲,29.8,75,986.7,0.0,0.5,276.0,31.3,2026-07-02T08:50:00+08:00,25.2,2026-07-02T05:00:00+08:00
新營,C0X250,臺南市,新營區,33.0,23.310689,120.316681,2026-07-02T10:00:00+08:00,多雲,31.3,69,1008.0,0.0,0.8,302.0,31.3,2026-07-02T10:00:00+08:00,27.4,2026-07-02T06:00:00+08:00
將軍,C0X280,臺南市,將軍區,22.0,23.214972,120.135761,2026-07-02T10:00:00+08:00,晴,30.8,79,1009.5,0.0,2.2,333.0,31.4,2026-07-02T08:20:00+08:00,27.8,2026-07-02T04:00:00+08:00
褒忠,C0K430,雲林縣,褒忠鄉,30.0,23.690928,120.303619,2026-07-02T10:00:00+08:00,晴,31.4,72,1009.2,0.0,1.9,245.0,32.0,2026-07-02T09:50:00+08:00,27.3,2026-07-02T03:00:00+08:00
溪口,C0M660,嘉義縣,溪口鄉,40.0,23.604119,120.403556,2026-07-02T10:00:00+08:00,多雲,31.0,73,1007.8,0.0,2.1,309.0,31.3,2026-07-02T09:40:00+08:00,27.3,2026-07-02T02:40:00+08:00
二崙,C0K440,雲林縣,二崙鄉,35.0,23.772797,120.408944,2026-07-02T10:00:00+08:00,多雲,31.7,73,1007.9,0.0,1.1,231.0,31.7,2026-07-02T10:00:00+08:00,27.0,2026-07-02T02:50:00+08:00
竹崎,C0M700,嘉義縣,竹崎鄉,150.0,23.526167,120.555497,2026-07-02T10:00:00+08:00,多雲,30.3,77,995.7,0.0,0.7,276.0,31.2,2026-07-02T08:30:00+08:00,25.2,2026-07-02T03:10:00+08:00
中埔,C0M640,嘉義縣,中埔鄉,155.0,23.425381,120.522903,2026-07-02T10:00:00+08:00,多雲,30.2,72,994.4,0.0,1.1,267.0,30.8,2026-07-02T08:50:00+08:00,25.9,2026-07-02T04:40:00+08:00
鹽水,C0X230,臺南市,鹽水區,29.0,23.272603,120.247622,2026-07-02T10:00:00+08:00,晴,31.0,74,1009.7,0.0,1.2,313.0,31.5,2026-07-02T08:40:00+08:00,27.2,2026-07-02T05:00:00+08:00
學甲,C0X220,臺南市,學甲區,26.0,23.230347,120.182167,2026-07-02T10:00:00+08:00,晴,31.0,71,1008.7,0.0,1.3,287.0,31.3,2026-07-02T08:30:00+08:00,27.9,2026-07-02T03:10:00+08:00
後壁,C0X260,臺南市,後壁區,39.0,23.366342,120.362306,2026-07-02T10:00:00+08:00,多雲,32.5,65,1007.9,0.0,1.6,271.0,32.5,2026-07-02T10:00:00+08:00,27.0,2026-07-02T04:30:00+08:00
西螺,C0K420,雲林縣,西螺鎮,42.0,23.800400,120.467383,2026-07-02T10:00:00+08:00,多雲,31.4,71,1006.8,0.0,0.6,210.0,32.5,2026-07-02T09:50:00+08:00,27.1,2026-07-02T03:00:00+08:00
土庫,C0K390,雲林縣,土庫鎮,31.0,23.679019,120.395561,2026-07-02T10:00:00+08:00,多雲,31.2,69,1008.3,0.0,1.5,259.0,31.2,2026-07-02T10:00:00+08:00,27.5,2026-07-02T02:30:00+08:00
大林,C0M670,嘉義縣,大林鎮,43.0,23.600606,120.458397,2026-07-02T10:00:00+08:00,多雲,31.6,69,1006.4,0.0,0.7,267.0,31.8,2026-07-02T09:40:00+08:00,27.3,2026-07-02T03:30:00+08:00
東石,C0M710,嘉義縣,東石鄉,15.0,23.458911,120.153831,2026-07-02T10:00:00+08:00,晴,31.0,76,1010.4,0.0,1.3,300.0,31.3,2026-07-02T08:50:00+08:00,28.1,2026-07-02T05:20:00+08:00
水上,C0M690,嘉義縣,水上鄉,33.0,23.419719,120.388894,2026-07-02T10:00:00+08:00,多雲,30.8,70,1007.2,0.0,0.7,262.0,31.5,2026-07-02T09:10:00+08:00,26.7,2026-07-02T05:00:00+08:00
嘉義市東區,C0M730,嘉義市,東區,40.0,23.457656,120.460517,2026-07-02T10:00:00+08:00,多雲,32.0,74,1006.6,0.0,1.3,258.0,32.3,2026-07-02T08:10:00+08:00,27.2,2026-07-02T03:10:00+08:00
關子嶺,C0X240,臺南市,白河區,394.0,23.331169,120.508025,2026-07-02T10:00:00+08:00,多雲,29.0,84,969.1,0.0,0.0,0.0,29.0,2026-07-02T10:00:00+08:00,23.1,2026-07-02T04:30:00+08:00
虎頭埤,C0O970,臺南市,新化區,71.0,23.021375,120.347878,2026-07-02T10:00:00+08:00,晴,31.2,76,1003.6,0.0,1.7,278.0,32.6,2026-07-02T09:40:00+08:00,25.6,2026-07-02T05:20:00+08:00
媽廟,C0O990,臺南市,歸仁區,18.0,22.991750,120.293525,2026-07-02T10:00:00+08:00,晴,32.8,71,1009.3,0.0,1.3,238.0,32.8,2026-07-02T09:40:00+08:00,27.1,2026-07-02T04:00:00+08:00
崎頂,C0O960,臺南市,龍崎區,112.0,22.959547,120.369317,2026-07-02T10:00:00+08:00,晴,33.9,64,997.8,0.0,0.5,7.0,33.9,2026-07-02T10:00:00+08:00,26.5,2026-07-02T05:20:00+08:00
新市,C0O980,臺南市,新市區,18.0,23.061614,120.298197,2026-07-02T10:00:00+08:00,晴,33.7,72,1010.1,0.0,0.3,312.0,33.7,2026-07-02T10:00:00+08:00,27.2,2026-07-02T05:50:00+08:00
北寮,C0O830,臺南市,南化區,127.0,23.079561,120.495008,2026-07-02T10:00:00+08:00,晴,33.1,72,997.6,0.0,1.2,280.0,33.9,2026-07-02T09:50:00+08:00,26.3,2026-07-02T04:10:00+08:00
善化,C0O900,臺南市,善化區,9.0,23.112883,120.297219,2026-07-02T10:00:00+08:00,晴,32.3,89,1010.0,0.0,1.8,312.0,32.5,2026-07-02T09:50:00+08:00,26.9,2026-07-02T04:50:00+08:00
復興,C0V210,高雄市,桃源區,734.0,23.222403,120.806089,2026-07-02T10:00:00+08:00,晴,30.4,56,931.4,0.0,2.7,209.0,30.4,2026-07-02T10:00:00+08:00,21.7,2026-07-02T05:30:00+08:00
王爺宮,C0O840,臺南市,六甲區,134.0,23.222064,120.400850,2026-07-02T10:00:00+08:00,多雲,29.4,79,995.8,0.0,1.2,280.0,30.1,2026-07-02T09:30:00+08:00,25.9,2026-07-02T05:20:00+08:00
大內,C0O860,臺南市,大內區,38.0,23.118847,120.360833,2026-07-02T10:00:00+08:00,晴,30.8,79,1006.6,0.0,1.2,304.0,31.3,2026-07-02T09:40:00+08:00,26.4,2026-07-02T05:40:00+08:00
阿蓮,C0V530,高雄市,阿蓮區,34.0,22.883208,120.327508,2026-07-02T10:00:00+08:00,晴,32.6,69,1007.6,0.0,1.5,280.0,32.7,2026-07-02T09:50:00+08:00,27.4,2026-07-02T04:30:00+08:00
臺南市北區,C0X100,臺南市,北區,10.0,23.010394,120.194228,2026-07-02T10:00:00+08:00,晴,31.6,73,1008.1,0.0,1.1,295.0,31.6,2026-07-02T10:00:00+08:00,28.2,2026-07-02T05:40:00+08:00
臺南市南區,C0X110,臺南市,南區,20.0,22.961189,120.188378,2026-07-02T10:00:00+08:00,晴,30.7,76,1009.3,0.0,2.2,254.0,30.9,2026-07-02T09:40:00+08:00,28.6,2026-07-02T05:40:00+08:00
安平,C0X190,臺南市,安平區,10.0,22.993161,120.152181,2026-07-02T10:00:00+08:00,晴,31.6,62,1010.3,0.0,1.9,248.0,31.7,2026-07-02T09:40:00+08:00,27.6,2026-07-02T04:50:00+08:00
麻豆,C0X120,臺南市,麻豆區,28.0,23.183289,120.248611,2026-07-02T10:00:00+08:00,晴,32.7,75,1008.6,0.0,2.1,302.0,32.7,2026-07-02T10:00:00+08:00,28.4,2026-07-02T05:10:00+08:00
安定,C0X150,臺南市,安定區,18.0,23.102614,120.227839,2026-07-02T10:00:00+08:00,晴,31.6,77,1009.6,0.0,1.4,271.0,31.9,2026-07-02T09:30:00+08:00,27.6,2026-07-02T05:00:00+08:00
山上,C0X180,臺南市,山上區,62.0,23.075700,120.363253,2026-07-02T10:00:00+08:00,晴,32.7,70,1003.5,0.0,0.9,305.0,32.9,2026-07-02T09:50:00+08:00,26.5,2026-07-02T04:50:00+08:00
關廟,C0X170,臺南市,關廟區,50.0,22.963017,120.327797,2026-07-02T10:00:00+08:00,晴,32.5,70,1005.2,0.0,1.5,331.0,33.4,2026-07-02T09:30:00+08:00,27.1,2026-07-02T05:50:00+08:00
官田,C0X130,臺南市,官田區,27.0,23.193217,120.315422,2026-07-02T10:00:00+08:00,多雲,32.3,72,1007.6,0.0,0.1,0.0,32.6,2026-07-02T09:30:00+08:00,27.2,2026-07-02T04:30:00+08:00
西港,C0X140,臺南市,西港區,17.0,23.125608,120.203108,2026-07-02T10:00:00+08:00,晴,30.8,70,1009.6,0.0,1.1,274.0,31.3,2026-07-02T09:20:00+08:00,27.5,2026-07-02T05:40:00+08:00
仁德,C0X160,臺南市,仁德區,26.0,22.968258,120.257689,2026-07-02T10:00:00+08:00,晴,30.7,72,1008.1,0.0,1.3,228.0,31.0,2026-07-02T09:30:00+08:00,28.5,2026-07-02T05:00:00+08:00
左鎮,C0X200,臺南市,左鎮區,61.0,23.056758,120.408522,2026-07-02T10:00:00+08:00,晴,34.1,61,1004.3,0.0,0.5,67.0,34.1,2026-07-02T10:00:00+08:00,26.8,2026-07-02T04:50:00+08:00
表湖,C0M850,嘉義縣,大埔鄉,695.0,23.241856,120.641658,2026-07-02T10:00:00+08:00,晴,-99,-99,-99,0.0,-99,-99,27.0,2026-07-02T09:50:00+08:00,22.6,2026-07-02T05:00:00+08:00
舊泰武,C0R600,屏東縣,泰武鄉,766.0,22.588194,120.664944,2026-07-02T10:00:00+08:00,多雲,26.3,86,928.8,0.0,1.7,275.0,27.3,2026-07-02T09:20:00+08:00,22.7,2026-07-02T04:50:00+08:00
萬山,C0V790,高雄市,茂林區,410.0,22.905944,120.688056,2026-07-02T10:00:00+08:00,晴,30.2,75,965.4,0.0,2.8,227.0,30.2,2026-07-02T10:00:00+08:00,24.1,2026-07-02T05:40:00+08:00
六龜,C0V800,高雄市,六龜區,256.0,22.997889,120.633583,2026-07-02T10:00:00+08:00,晴,31.5,66,981.3,0.0,1.8,284.0,31.5,2026-07-02T09:30:00+08:00,24.1,2026-07-02T05:50:00+08:00
里港,C0R590,屏東縣,里港鄉,72.0,22.779194,120.494589,2026-07-02T10:00:00+08:00,晴,30.6,74,1003.1,0.0,2.1,321.0,31.1,2026-07-02T09:30:00+08:00,26.5,2026-07-02T05:30:00+08:00
左營,C0V810,高雄市,左營區,32.0,22.674911,120.284911,2026-07-02T10:00:00+08:00,晴,29.8,81,1006.4,0.0,2.5,295.0,30.7,2026-07-02T09:20:00+08:00,27.9,2026-07-02T05:10:00+08:00
東港,C0R640,屏東縣,東港鎮,21.0,22.462467,120.440744,2026-07-02T10:00:00+08:00,多雲,30.9,66,1009.4,0.0,5.5,155.0,31.3,2026-07-02T08:30:00+08:00,28.0,2026-07-02T05:50:00+08:00
竹田,C0R650,屏東縣,竹田鄉,29.0,22.584861,120.543442,2026-07-02T10:00:00+08:00,多雲,33.8,67,1008.2,0.0,0.8,309.0,33.8,2026-07-02T10:00:00+08:00,27.8,2026-07-02T06:00:00+08:00
萬丹,C0R930,屏東縣,萬丹鄉,30.0,22.588475,120.485081,2026-07-02T10:00:00+08:00,多雲,32.1,67,1007.4,0.0,0.9,39.0,32.3,2026-07-02T09:50:00+08:00,27.7,2026-07-02T06:00:00+08:00
阿禮,C0R130,屏東縣,霧臺鄉,1040.0,22.742908,120.743678,2026-07-02T10:00:00+08:00,多雲,29.3,56,897.2,0.0,1.1,77.0,29.3,2026-07-02T10:00:00+08:00,22.6,2026-07-02T01:30:00+08:00
瑪家,C0R140,屏東縣,瑪家鄉,740.0,22.682903,120.686639,2026-07-02T10:00:00+08:00,多雲,26.7,95,940.5,0.0,0.6,357.0,26.7,2026-07-02T10:00:00+08:00,22.4,2026-07-02T05:40:00+08:00
溪埔,C0V350,高雄市,大樹區,36.0,22.738578,120.446797,2026-07-02T10:00:00+08:00,多雲,34.2,61,1008.1,0.0,1.0,146.0,34.4,2026-07-02T09:50:00+08:00,25.5,2026-07-02T05:40:00+08:00
尾寮山,C0R100,屏東縣,三地門鄉,1006.0,22.833111,120.683889,2026-07-02T10:00:00+08:00,晴,-99,-99,-99,-99,-99,-99,-99,-99,-99,-99
阿公店,C0V400,高雄市,燕巢區,56.0,22.804194,120.355528,2026-07-02T10:00:00+08:00,晴,31.3,78,1003.9,0.0,1.9,288.0,31.8,2026-07-02T09:30:00+08:00,27.4,2026-07-02T05:40:00+08:00
內門,C0V360,高雄市,內門區,94.0,22.975481,120.466769,2026-07-02T10:00:00+08:00,晴,30.2,89,1000.9,0.0,1.3,303.0,31.8,2026-07-02T09:40:00+08:00,24.9,2026-07-02T04:20:00+08:00
古亭坑,C0V370,高雄市,田寮區,74.0,22.893178,120.401947,2026-07-02T10:00:00+08:00,晴,32.1,71,1003.7,0.0,0.3,283.0,32.3,2026-07-02T09:50:00+08:00,25.8,2026-07-02T05:40:00+08:00
琉球嶼,C0R270,屏東縣,琉球鄉,51.0,22.332244,120.362236,2026-07-02T10:00:00+08:00,多雲,30.5,83,1004.5,0.0,3.7,142.0,31.4,2026-07-02T09:50:00+08:00,28.9,2026-07-02T02:50:00+08:00
鳳山,C0V440,高雄市,鳳山區,27.0,22.646653,120.356122,2026-07-02T10:00:00+08:00,晴,34.4,67,1008.4,0.0,1.1,255.0,34.4,2026-07-02T10:00:00+08:00,27.8,2026-07-02T05:00:00+08:00
鹽埔,C0R160,屏東縣,鹽埔鄉,45.0,22.739558,120.530778,2026-07-02T10:00:00+08:00,晴,31.5,74,1005.4,0.0,2.1,335.0,31.5,2026-07-02T10:00:00+08:00,26.4,2026-07-02T05:40:00+08:00
鳳森,C0V450,高雄市,小港區,51.0,22.545064,120.392592,2026-07-02T10:00:00+08:00,多雲,32.7,68,1005.1,0.0,1.2,161.0,32.8,2026-07-02T09:40:00+08:00,25.7,2026-07-02T05:20:00+08:00
赤山,C0R190,屏東縣,萬巒鄉,32.0,22.592333,120.614306,2026-07-02T10:00:00+08:00,多雲,32.3,68,1006.4,0.0,1.1,345.0,32.4,2026-07-02T09:30:00+08:00,26.5,2026-07-02T06:10:00+08:00
三地門,C0R150,屏東縣,內埔鄉,105.0,22.709889,120.639944,2026-07-02T10:00:00+08:00,多雲,33.7,61,999.0,0.0,0.9,297.0,34.4,2026-07-02T09:50:00+08:00,25.9,2026-07-02T05:40:00+08:00
潮州,C0R220,屏東縣,潮州鎮,23.0,22.534361,120.540000,2026-07-02T10:00:00+08:00,多雲,31.7,69,1008.6,0.0,2.2,255.0,32.7,2026-07-02T09:30:00+08:00,27.3,2026-07-02T05:50:00+08:00
新興,C0V490,高雄市,新興區,20.0,22.627422,120.298803,2026-07-02T10:00:00+08:00,晴,32.1,67,1008.5,0.0,2.0,175.0,32.9,2026-07-02T09:00:00+08:00,28.7,2026-07-02T05:20:00+08:00
湖內,C0V640,高雄市,湖內區,35.0,22.887139,120.244500,2026-07-02T10:00:00+08:00,晴,30.8,72,1008.0,0.0,2.5,253.0,31.4,2026-07-02T07:50:00+08:00,26.2,2026-07-02T05:00:00+08:00
永安,C0V620,高雄市,永安區,18.0,22.823150,120.236856,2026-07-02T10:00:00+08:00,晴,31.0,77,1009.6,0.0,1.7,259.0,31.0,2026-07-02T10:00:00+08:00,27.1,2026-07-02T05:00:00+08:00
大社,C0V770,高雄市,大社區,26.0,22.730306,120.346639,2026-07-02T10:00:00+08:00,晴,32.5,70,1010.1,0.0,1.3,34.0,32.5,2026-07-02T10:00:00+08:00,28.0,2026-07-02T05:50:00+08:00
梓官,C0V610,高雄市,梓官區,22.0,22.760558,120.267211,2026-07-02T10:00:00+08:00,晴,31.1,75,1008.5,0.0,3.0,243.0,31.6,2026-07-02T09:30:00+08:00,27.7,2026-07-02T05:20:00+08:00
路竹,C0V750,高雄市,路竹區,50.0,22.854997,120.259439,2026-07-02T10:00:00+08:00,晴,33.0,70,1007.0,0.0,1.2,259.0,33.0,2026-07-02T10:00:00+08:00,28.6,2026-07-02T04:50:00+08:00
茄萣,C0V630,高雄市,茄萣區,19.0,22.906642,120.182608,2026-07-02T10:00:00+08:00,晴,32.0,73,1009.8,0.0,1.5,309.0,32.4,2026-07-02T09:50:00+08:00,27.6,2026-07-02T05:00:00+08:00
岡山,C0V660,高雄市,岡山區,25.0,22.797078,120.294958,2026-07-02T10:00:00+08:00,晴,32.3,74,1009.2,0.0,1.2,288.0,32.3,2026-07-02T10:00:00+08:00,28.4,2026-07-02T04:40:00+08:00
彌陀,C0V650,高雄市,彌陀區,28.0,22.783806,120.246361,2026-07-02T10:00:00+08:00,晴,-99,-99,-99,0.0,-99,-99,30.8,2026-07-02T09:50:00+08:00,27.8,2026-07-02T04:50:00+08:00
橋頭,C0V760,高雄市,橋頭區,30.0,22.757806,120.305750,2026-07-02T10:00:00+08:00,晴,33.1,66,1008.4,0.0,1.6,270.0,34.1,2026-07-02T09:40:00+08:00,28.2,2026-07-02T06:00:00+08:00
仁武,C0V680,高雄市,仁武區,40.0,22.701083,120.347722,2026-07-02T10:00:00+08:00,晴,31.9,70,1006.8,0.0,0.6,294.0,31.9,2026-07-02T10:00:00+08:00,28.7,2026-07-02T05:40:00+08:00
三民,C0V700,高雄市,三民區,24.0,22.645017,120.311233,2026-07-02T10:00:00+08:00,晴,31.4,75,1007.7,0.0,1.1,209.0,31.7,2026-07-02T09:20:00+08:00,28.9,2026-07-02T05:50:00+08:00
鼓山,C0V690,高雄市,鼓山區,30.0,22.623325,120.275575,2026-07-02T10:00:00+08:00,晴,30.7,75,1009.1,0.0,5.1,155.0,31.4,2026-07-02T08:50:00+08:00,28.4,2026-07-02T02:50:00+08:00
苓雅,C0V710,高雄市,苓雅區,34.0,22.622742,120.330669,2026-07-02T10:00:00+08:00,晴,32.3,71,1007.0,0.0,3.6,210.0,32.8,2026-07-02T09:00:00+08:00,29.0,2026-07-02T05:00:00+08:00
旗山,C0V740,高雄市,旗山區,60.0,22.888614,120.483597,2026-07-02T10:00:00+08:00,晴,32.4,67,1004.3,0.0,1.8,278.0,32.4,2026-07-02T10:00:00+08:00,26.8,2026-07-02T05:30:00+08:00
長治,C0R480,屏東縣,長治鄉,57.0,22.693128,120.542622,2026-07-02T10:00:00+08:00,多雲,30.7,69,1004.4,0.0,0.2,0.0,31.4,2026-07-02T09:40:00+08:00,26.9,2026-07-02T05:30:00+08:00
麟洛,C0R570,屏東縣,麟洛鄉,37.0,22.650775,120.527192,2026-07-02T10:00:00+08:00,多雲,33.3,70,1005.9,0.0,0.6,18.0,33.3,2026-07-02T10:00:00+08:00,27.8,2026-07-02T05:40:00+08:00
南州,C0R580,屏東縣,南州鄉,10.0,22.485911,120.502736,2026-07-02T10:00:00+08:00,多雲,-99,-99,-99,0.0,-99,-99,32.2,2026-07-02T09:40:00+08:00,27.7,2026-07-02T05:10:00+08:00
佳冬,C0R540,屏東縣,佳冬鄉,17.0,22.419456,120.552375,2026-07-02T10:00:00+08:00,多雲,32.4,68,1008.6,0.0,3.5,162.0,32.8,2026-07-02T09:50:00+08:00,26.7,2026-07-02T05:40:00+08:00
高樹,C0R470,屏東縣,高樹鄉,103.0,22.826389,120.600806,2026-07-02T10:00:00+08:00,晴,31.5,70,999.4,0.0,2.1,235.0,32.4,2026-07-02T09:40:00+08:00,26.5,2026-07-02T04:00:00+08:00
大寮,C0V730,高雄市,大寮區,33.0,22.605614,120.395717,2026-07-02T10:00:00+08:00,晴,33.3,61,1007.6,0.0,1.4,148.0,33.3,2026-07-02T10:00:00+08:00,28.0,2026-07-02T05:30:00+08:00
新園,C0R560,屏東縣,新園鄉,22.0,22.543400,120.461558,2026-07-02T10:00:00+08:00,多雲,31.7,68,1008.5,0.0,2.5,232.0,32.2,2026-07-02T09:10:00+08:00,28.3,2026-07-02T05:30:00+08:00
崁頂,C0R520,屏東縣,崁頂鄉,18.0,22.514781,120.506914,2026-07-02T10:00:00+08:00,多雲,-99,-99,-99,-99,-99,-99,32.0,2026-07-02T09:20:00+08:00,27.3,2026-07-02T05:50:00+08:00
林園,C0V720,高雄市,林園區,15.0,22.507747,120.394511,2026-07-02T10:00:00+08:00,多雲,32.2,69,1009.6,0.0,3.8,155.0,33.1,2026-07-02T09:10:00+08:00,28.4,2026-07-02T05:50:00+08:00
溪州,C0G720,彰化縣,溪州鄉,50.0,23.851597,120.499083,2026-07-02T10:00:00+08:00,多雲,32.0,66,1005.7,0.0,1.3,243.0,32.0,2026-07-02T10:00:00+08:00,27.3,2026-07-02T04:00:00+08:00
斗南,C0K460,雲林縣,斗南鎮,60.0,23.678725,120.478347,2026-07-02T10:00:00+08:00,多雲,31.2,77,1004.1,0.0,2.3,272.0,31.3,2026-07-02T09:30:00+08:00,27.5,2026-07-02T01:50:00+08:00
斗六,C0K400,雲林縣,斗六市,65.0,23.720575,120.541117,2026-07-02T10:00:00+08:00,多雲,30.8,74,1004.9,0.0,1.4,288.0,31.2,2026-07-02T09:40:00+08:00,26.9,2026-07-02T05:10:00+08:00
朴子,C0M650,嘉義縣,朴子市,20.0,23.434628,120.239019,2026-07-02T10:00:00+08:00,晴,31.3,74,1009.8,0.0,1.1,309.0,31.3,2026-07-02T10:00:00+08:00,26.9,2026-07-02T01:40:00+08:00
北港,C0K410,雲林縣,北港鎮,20.0,23.574056,120.291786,2026-07-02T10:00:00+08:00,晴,31.8,71,1008.5,0.0,1.2,262.0,31.8,2026-07-02T10:00:00+08:00,27.4,2026-07-02T04:00:00+08:00
太保,C0M680,嘉義縣,太保市,37.0,23.455047,120.331439,2026-07-02T10:00:00+08:00,多雲,31.1,67,1009.0,0.0,1.3,256.0,32.0,2026-07-02T09:30:00+08:00,27.0,2026-07-02T05:30:00+08:00
林內,C0K470,雲林縣,林內鄉,97.0,23.748675,120.609642,2026-07-02T10:00:00+08:00,多雲,30.9,73,1000.5,0.0,1.2,245.0,31.4,2026-07-02T09:30:00+08:00,25.4,2026-07-02T03:40:00+08:00
大城,C0G740,彰化縣,大城鄉,24.0,23.852481,120.320922,2026-07-02T10:00:00+08:00,晴,30.0,81,1009.2,0.0,3.0,296.0,30.7,2026-07-02T09:10:00+08:00,27.6,2026-07-02T03:00:00+08:00
民雄,C0M760,嘉義縣,民雄鄉,40.0,23.551742,120.428444,2026-07-02T10:00:00+08:00,多雲,31.2,71,1007.4,0.0,1.0,278.0,31.5,2026-07-02T09:50:00+08:00,27.3,2026-07-02T05:40:00+08:00
大埤,C0K450,雲林縣,大埤鄉,35.0,23.646064,120.431525,2026-07-02T10:00:00+08:00,多雲,32.1,68,1007.1,0.0,1.0,292.0,33.2,2026-07-02T09:20:00+08:00,27.4,2026-07-02T02:40:00+08:00
莿桐,C0K480,雲林縣,莿桐鄉,56.0,23.761192,120.502372,2026-07-02T10:00:00+08:00,多雲,30.9,73,1005.1,0.0,1.5,255.0,31.4,2026-07-02T09:40:00+08:00,26.9,2026-07-02T02:50:00+08:00
臺西,C0K530,雲林縣,臺西鄉,12.0,23.701544,120.197547,2026-07-02T10:00:00+08:00,晴,-99,-99,-99,0.0,-99,-99,30.5,2026-07-02T09:30:00+08:00,27.7,2026-07-02T01:30:00+08:00
水林,C0K510,雲林縣,水林鄉,10.0,23.572911,120.245956,2026-07-02T10:00:00+08:00,晴,31.4,74,1009.9,0.0,2.1,294.0,32.1,2026-07-02T09:40:00+08:00,27.7,2026-07-02T01:10:00+08:00
元長,C0K500,雲林縣,元長鄉,20.0,23.642858,120.319663,2026-07-02T10:00:00+08:00,多雲,31.6,69,1008.8,0.0,1.6,264.0,32.4,2026-07-02T09:30:00+08:00,27.0,2026-07-02T03:30:00+08:00
布袋,C0M750,嘉義縣,布袋鎮,10.0,23.380864,120.167778,2026-07-02T10:00:00+08:00,晴,31.2,73,1010.6,0.0,0.3,300.0,31.7,2026-07-02T09:00:00+08:00,28.0,2026-07-02T04:50:00+08:00
鹿草,C0M780,嘉義縣,鹿草鄉,30.0,23.411322,120.308333,2026-07-02T10:00:00+08:00,多雲,31.4,68,1008.6,0.0,1.3,269.0,31.7,2026-07-02T08:40:00+08:00,27.4,2026-07-02T03:20:00+08:00
六腳,C0M740,嘉義縣,六腳鄉,15.0,23.492864,120.290611,2026-07-02T10:00:00+08:00,晴,-99,-99,-99,-99,-99,-99,31.3,2026-07-02T09:50:00+08:00,27.5,2026-07-02T05:20:00+08:00
新港,C0M790,嘉義縣,新港鄉,15.0,23.553261,120.345719,2026-07-02T10:00:00+08:00,多雲,31.7,69,1008.8,0.0,0.8,247.0,31.7,2026-07-02T10:00:00+08:00,27.2,2026-07-02T03:20:00+08:00
梅山,C0M770,嘉義縣,梅山鄉,164.0,23.585386,120.555581,2026-07-02T10:00:00+08:00,多雲,30.3,74,993.1,0.0,1.3,234.0,30.5,2026-07-02T09:30:00+08:00,26.0,2026-07-02T03:20:00+08:00
達邦,C0M820,嘉義縣,阿里山鄉,980.0,23.453994,120.749517,2026-07-02T10:00:00+08:00,晴,26.3,75,906.2,0.0,2.2,246.0,27.1,2026-07-02T09:30:00+08:00,20.3,2026-07-02T05:20:00+08:00
鹿寮,C0X300,臺南市,白河區,70.0,23.386047,120.477331,2026-07-02T10:00:00+08:00,多雲,30.7,79,1003.8,0.0,1.1,278.0,31.5,2026-07-02T09:30:00+08:00,25.9,2026-07-02T02:40:00+08:00
茶山,C0M800,嘉義縣,阿里山鄉,440.0,23.299075,120.664767,2026-07-02T10:00:00+08:00,晴,29.9,70,963.6,0.0,1.0,262.0,30.1,2026-07-02T09:50:00+08:00,23.1,2026-07-02T05:40:00+08:00
棋山,C0K560,雲林縣,古坑鄉,117.0,23.686450,120.603417,2026-07-02T10:00:00+08:00,多雲,32.0,69,999.2,0.0,0.5,246.0,32.0,2026-07-02T10:00:00+08:00,25.6,2026-07-02T03:30:00+08:00
蔦松,C0K550,雲林縣,水林鄉,15.0,23.514319,120.229736,2026-07-02T10:00:00+08:00,晴,32.2,71,1010.4,0.0,0.8,266.0,33.3,2026-07-02T09:10:00+08:00,27.3,2026-07-02T02:30:00+08:00
北門,C0X290,臺南市,北門區,10.0,23.267772,120.125481,2026-07-02T10:00:00+08:00,晴,30.8,80,1010.6,0.0,1.5,327.0,31.0,2026-07-02T09:40:00+08:00,28.1,2026-07-02T03:50:00+08:00
口湖工作站,12J990,雲林縣,口湖鄉,10.0,23.589978,120.180394,2026-07-02T10:00:00+08:00,晴,30.3,78,1010.7,0.0,2.1,280.0,31.0,2026-07-02T08:40:00+08:00,27.3,2026-07-02T00:59:00+08:00
東港工作站,12Q970,屏東縣,東港鎮,16.0,22.479997,120.466058,2026-07-02T10:00:00+08:00,多雲,31.3,71,1009.8,-99,3.4,180.0,33.7,2026-07-02T09:23:00+08:00,27.0,2026-07-02T05:16:00+08:00
恆春工作站,12Q980,屏東縣,車城鄉,16.0,22.079678,120.714425,2026-07-02T10:00:00+08:00,多雲,29.6,83,1010.8,3.5,3.6,100.0,30.6,2026-07-02T10:24:00+08:00,26.4,2026-07-02T04:55:00+08:00
萬大發電廠,42HA10,南投縣,仁愛鄉,1000.0,23.978875,121.139639,2026-07-02T10:00:00+08:00,晴,-99,-99,-99,0.0,1.2,340.0,-99,-99,-99,-99
新北,466881,新北市,新店區,24.5,24.959207,121.525196,2026-07-02T10:00:00+08:00,晴,32.5,63,1008.3,0.0,0.6,30.0,33.7,2026-07-02T10:44:00+08:00,24.3,2026-07-02T05:15:00+08:00
淡水,466900,新北市,淡水區,19.0,25.164889,121.448906,2026-07-02T10:00:00+08:00,晴,-99,-99,-99,-99,-99,-99,29.7,2026-07-02T09:50:00+08:00,25.4,2026-07-02T05:03:00+08:00
鞍部,466910,臺北市,北投區,837.6,25.182586,121.529731,2026-07-02T10:00:00+08:00,晴,27.9,77,921.4,0.0,0.7,210.0,28.6,2026-07-02T10:53:00+08:00,20.4,2026-07-02T03:57:00+08:00
臺北,466920,臺北市,中正區,6.3,25.037658,121.514853,2026-07-02T10:00:00+08:00,晴,33.1,62,1007.7,0.0,0.6,50.0,34.0,2026-07-02T10:24:00+08:00,27.5,2026-07-02T05:16:00+08:00
陽明山,466930,臺北市,北投區,607.1,25.162078,121.544547,2026-07-02T10:00:00+08:00,晴,26.2,88,944.4,0.0,0.2,0.0,26.9,2026-07-02T09:35:00+08:00,22.4,2026-07-02T03:48:00+08:00
基隆,466940,基隆市,仁愛區,26.7,25.133314,121.740475,2026-07-02T10:00:00+08:00,晴,30.8,74,1008.2,0.0,2.6,50.0,30.9,2026-07-02T09:56:00+08:00,26.5,2026-07-02T04:59:00+08:00
彭佳嶼,466950,基隆市,中正區,101.7,25.627975,122.079744,2026-07-02T10:00:00+08:00,晴,29.5,83,1000.2,0.0,3.0,160.0,30.3,2026-07-02T10:36:00+08:00,26.6,2026-07-02T05:16:00+08:00
花蓮,466990,花蓮縣,花蓮市,16.1,23.975128,121.613275,2026-07-02T10:00:00+08:00,晴,30.5,77,1010.1,0.0,6.1,180.0,30.6,2026-07-02T09:59:00+08:00,25.9,2026-07-02T04:51:00+08:00
新屋,467050,桃園市,新屋區,20.6,25.006725,121.047492,2026-07-02T10:00:00+08:00,晴有靄,30.5,80,1009.2,0.0,3.2,300.0,31.1,2026-07-02T10:46:00+08:00,26.4,2026-07-02T05:06:00+08:00
宜蘭,467080,宜蘭縣,宜蘭市,7.2,24.763975,121.756528,2026-07-02T10:00:00+08:00,晴,31.8,74,1010.3,0.0,3.2,60.0,32.7,2026-07-02T10:46:00+08:00,25.1,2026-07-02T05:20:00+08:00
金門,467110,金門縣,金城鎮,47.9,24.407306,118.289281,2026-07-02T10:00:00+08:00,晴,30.8,76,1008.8,0.0,2.3,250.0,32.1,2026-07-02T10:45:00+08:00,27.6,2026-07-02T01:38:00+08:00
田中,467270,彰化縣,田中鎮,48.6,23.873803,120.581286,2026-07-02T10:00:00+08:00,晴,31.2,77,1006.4,0.0,1.3,250.0,32.6,2026-07-02T10:52:00+08:00,26.9,2026-07-02T03:28:00+08:00
後龍,467280,苗栗縣,造橋鄉,30.0,24.648563,120.831834,2026-07-02T10:00:00+08:00,陰,29.1,84,1007.9,0.0,1.0,320.0,30.1,2026-07-02T10:49:00+08:00,26.1,2026-07-02T05:04:00+08:00
古坑,467290,雲林縣,古坑鄉,91.9,23.633536,120.551906,2026-07-02T10:00:00+08:00,多雲,31.0,74,1001.2,0.0,1.7,250.0,31.9,2026-07-02T10:46:00+08:00,26.1,2026-07-02T02:49:00+08:00
東吉島,467300,澎湖縣,望安鄉,43.0,23.257270,119.667620,2026-07-02T10:00:00+08:00,晴,29.9,89,1007.1,0.0,1.8,30.0,31.5,2026-07-02T10:51:00+08:00,27.0,2026-07-02T04:37:00+08:00
澎湖,467350,澎湖縣,馬公市,10.7,23.565503,119.563094,2026-07-02T10:00:00+08:00,多雲,29.5,83,1010.6,0.0,1.2,330.0,31.1,2026-07-02T10:52:00+08:00,26.8,2026-07-02T03:15:00+08:00
臺南,467410,臺南市,中西區,40.8,22.993280,120.204920,2026-07-02T10:00:00+08:00,晴,31.1,69,1008.8,0.0,2.5,220.0,32.0,2026-07-02T10:12:00+08:00,28.1,2026-07-02T05:10:00+08:00
永康,467420,臺南市,永康區,8.1,23.038386,120.236700,2026-07-02T10:00:00+08:00,晴,31.4,70,1010.2,0.0,-99,-99,32.0,2026-07-02T09:41:00+08:00,27.8,2026-07-02T05:54:00+08:00
高雄,467441,高雄市,楠梓區,11.8,22.730432,120.312516,2026-07-02T10:00:00+08:00,晴,31.2,78,1010.2,0.0,2.3,270.0,33.1,2026-07-02T10:40:00+08:00,26.3,2026-07-02T05:18:00+08:00
嘉義,467480,嘉義市,西區,26.9,23.495925,120.432906,2026-07-02T10:00:00+08:00,多雲,31.1,77,1008.2,0.0,2.0,270.0,32.5,2026-07-02T10:52:00+08:00,26.9,2026-07-02T02:21:00+08:00
臺中,467490,臺中市,北區,84.0,24.145736,120.684075,2026-07-02T10:00:00+08:00,晴,31.9,70,1001.7,0.0,1.1,230.0,32.0,2026-07-02T10:01:00+08:00,27.4,2026-07-02T01:38:00+08:00
阿里山,467530,嘉義縣,阿里山鄉,2413.4,23.508208,120.813242,2026-07-02T10:00:00+08:00,晴,20.4,68,767.6,0.0,1.2,360.0,20.4,2026-07-02T09:46:00+08:00,11.4,2026-07-02T02:37:00+08:00
大武,467540,臺東縣,大武鄉,8.1,22.355720,120.903740,2026-07-02T10:00:00+08:00,陰,28.3,90,1012.0,18.0,0.7,290.0,28.7,2026-07-02T10:07:00+08:00,26.4,2026-07-02T02:19:00+08:00
玉山,467550,南投縣,信義鄉,3844.8,23.487180,120.959430,2026-07-02T10:00:00+08:00,晴,14.7,54,649.0,0.0,3.2,300.0,17.9,2026-07-02T10:51:00+08:00,4.5,2026-07-02T01:08:00+08:00
新竹,467571,新竹縣,竹北市,26.9,24.828575,121.014550,2026-07-02T10:00:00+08:00,多雲,30.4,75,1008.5,0.0,1.5,300.0,31.6,2026-07-02T09:46:00+08:00,26.2,2026-07-02T05:00:00+08:00
恆春,467590,屏東縣,恆春鎮,22.3,22.003897,120.746339,2026-07-02T10:00:00+08:00,多雲,30.2,83,1009.5,9.0,3.5,130.0,30.6,2026-07-02T09:45:00+08:00,26.4,2026-07-02T04:45:00+08:00
成功,467610,臺東縣,成功鎮,33.5,23.097486,121.373428,2026-07-02T10:00:00+08:00,晴,30.4,83,1008.3,0.0,1.4,200.0,31.4,2026-07-02T10:18:00+08:00,25.0,2026-07-02T05:02:00+08:00
蘭嶼,467620,臺東縣,蘭嶼鄉,324.0,22.036900,121.558430,2026-07-02T10:00:00+08:00,晴,27.7,91,977.3,14.5,4.9,150.0,28.4,2026-07-02T10:07:00+08:00,24.5,2026-07-02T02:48:00+08:00
日月潭,467650,南投縣,魚池鄉,1017.5,23.881325,120.908050,2026-07-02T10:00:00+08:00,晴,26.6,88,902.2,0.0,0.2,0.0,27.9,2026-07-02T10:09:00+08:00,21.1,2026-07-02T05:24:00+08:00
臺東,467660,臺東縣,臺東市,9.0,22.752211,121.154586,2026-07-02T10:00:00+08:00,多雲,31.0,73,1011.9,0.0,1.9,160.0,32.1,2026-07-02T10:44:00+08:00,26.7,2026-07-02T05:47:00+08:00
馬祖,467990,連江縣,南竿鄉,97.8,26.169467,119.923158,2026-07-02T10:00:00+08:00,晴,31.1,68,1000.5,0.0,1.9,220.0,32.0,2026-07-02T10:52:00+08:00,26.7,2026-07-02T05:40:00+08:00
東沙島,468100,高雄市,旗津區,4.0,20.700856,116.730000,2026-07-02T10:00:00+08:00,晴,31.9,73,1009.1,0.0,4.3,130.0,32.2,2026-07-02T10:50:00+08:00,30.4,2026-07-02T07:30:00+08:00
南沙島,469020,高雄市,旗津區,4.5,10.370203,114.364286,2026-07-02T10:00:00+08:00,-99,-99,-99,-99,-99,-99,-99,-99,-99,-99,-99
桃改樹林分場,72AI40,新北市,樹林區,40.0,24.944503,121.386972,2026-07-02T10:00:00+08:00,晴,32.4,61,1007.7,0.0,0.6,240.0,33.9,2026-07-02T10:51:00+08:00,24.2,2026-07-02T04:50:00+08:00
桃園農改,72C440,桃園市,新屋區,70.0,24.950944,121.030583,2026-07-02T10:00:00+08:00,晴,31.0,73,1007.4,0.0,2.0,290.0,31.3,2026-07-02T10:39:00+08:00,25.9,2026-07-02T04:51:00+08:00
桃改五峰分場,72D080,新竹縣,五峰鄉,1048.0,24.612194,121.157167,2026-07-02T10:00:00+08:00,晴,24.9,87,898.5,0.0,0.3,330.0,27.0,2026-07-02T08:32:00+08:00,20.2,2026-07-02T04:02:00+08:00
桃改新埔分場,72D680,新竹縣,新埔鎮,101.9,24.834444,121.066111,2026-07-02T10:00:00+08:00,多雲,30.1,71,1002.1,0.0,1.6,320.0,31.4,2026-07-02T10:48:00+08:00,24.4,2026-07-02T05:06:00+08:00
臺中農改,72G600,彰化縣,大村鄉,19.0,24.003028,120.534389,2026-07-02T10:00:00+08:00,晴,31.8,73,1009.9,0.0,1.4,290.0,33.0,2026-07-02T09:44:00+08:00,26.8,2026-07-02T02:38:00+08:00
中改埔里分場,72HA00,南投縣,魚池鄉,628.0,23.903208,120.963364,2026-07-02T10:00:00+08:00,晴,-99,-99,-99,-99,-99,-99,-99,-99,-99,-99
南改斗南分場,72K220,雲林縣,斗南鎮,60.0,23.634556,120.477333,2026-07-02T10:00:00+08:00,多雲,32.4,71,1007.4,0.0,0.4,250.0,34.8,2026-07-02T10:31:00+08:00,26.4,2026-07-02T02:53:00+08:00
南改義竹分場,72M360,嘉義縣,義竹鄉,6.0,23.360694,120.279361,2026-07-02T10:00:00+08:00,多雲,31.3,72,1010.4,0.0,2.3,300.0,32.3,2026-07-02T10:36:00+08:00,26.2,2026-07-02T03:53:00+08:00
南改鹿草分場,72M700,嘉義縣,鹿草鄉,14.0,23.416869,120.283061,2026-07-02T10:00:00+08:00,多雲,31.9,65,1010.4,0.0,2.0,230.0,33.1,2026-07-02T09:00:00+08:00,26.7,2026-07-02T03:55:00+08:00
臺南農改,72N100,臺南市,新化區,41.0,23.060500,120.342194,2026-07-02T10:00:00+08:00,晴,31.6,74,1007.7,-99,-99,-99,33.6,2026-07-02T09:51:00+08:00,25.4,2026-07-02T05:22:00+08:00
七股研究中心,72N240,臺南市,七股區,2.0,23.081672,120.062894,2026-07-02T10:00:00+08:00,多雲,31.8,74,1011.5,0.0,1.8,310.0,32.4,2026-07-02T10:53:00+08:00,28.2,2026-07-02T03:19:00+08:00
高雄農改,72Q010,屏東縣,長治鄉,45.0,22.709333,120.525889,2026-07-02T10:00:00+08:00,晴,33.3,61,1007.3,-99,0.5,200.0,34.4,2026-07-02T10:49:00+08:00,26.1,2026-07-02T05:20:00+08:00
東改班鳩分場,72S200,臺東縣,卑南鄉,240.0,22.829528,121.077694,2026-07-02T10:00:00+08:00,晴,32.5,64,984.1,0.0,3.1,110.0,33.0,2026-07-02T10:23:00+08:00,23.2,2026-07-02T03:56:00+08:00
東改賓朗果園,72S590,臺東縣,卑南鄉,290.0,22.813889,121.071278,2026-07-02T10:00:00+08:00,晴,30.6,74,980.9,0.0,1.3,20.0,31.7,2026-07-02T10:07:00+08:00,22.7,2026-07-02T04:38:00+08:00
花蓮農改,72T250,花蓮縣,吉安鄉,36.0,23.975222,121.563889,2026-07-02T10:00:00+08:00,晴,34.6,55,1007.6,0.0,0.7,190.0,35.0,2026-07-02T10:37:00+08:00,24.8,2026-07-02T04:53:00+08:00
花改蘭陽分場,72U480,宜蘭縣,三星鄉,27.0,24.686306,121.716583,2026-07-02T10:00:00+08:00,晴,32.4,65,1008.2,0.0,1.6,80.0,33.3,2026-07-02T10:46:00+08:00,25.0,2026-07-02T05:03:00+08:00
高改旗南分場,72V140,高雄市,旗山區,44.0,22.857861,120.516667,2026-07-02T10:00:00+08:00,晴,31.2,70,1006.7,-99,1.4,300.0,33.2,2026-07-02T10:20:00+08:00,25.6,2026-07-02T04:59:00+08:00
茶改北部分場,82A750,新北市,石碇區,401.0,24.955778,121.631222,2026-07-02T10:00:00+08:00,晴,29.9,73,966.3,0.0,1.5,50.0,31.7,2026-07-02T10:47:00+08:00,23.2,2026-07-02T05:30:00+08:00
茶改場,82C160,桃園市,楊梅區,195.0,24.908472,121.185333,2026-07-02T10:00:00+08:00,晴,30.6,67,989.0,0.0,1.2,280.0,31.0,2026-07-02T10:25:00+08:00,25.3,2026-07-02T02:53:00+08:00
茶改中部分場,82H320,南投縣,魚池鄉,850.0,23.875611,120.913583,2026-07-02T10:00:00+08:00,晴,26.7,81,919.1,0.0,0.0,0.0,28.4,2026-07-02T09:03:00+08:00,21.4,2026-07-02T05:36:00+08:00
茶改南部分場,82H840,南投縣,鹿谷鄉,390.0,23.762528,120.740500,2026-07-02T10:00:00+08:00,晴,29.6,69,967.1,0.0,1.7,300.0,31.0,2026-07-02T10:20:00+08:00,23.2,2026-07-02T04:25:00+08:00
茶改東部分場,82S580,臺東縣,鹿野鄉,175.0,22.907694,121.130139,2026-07-02T10:00:00+08:00,晴,32.5,64,992.7,0.0,1.5,180.0,33.3,2026-07-02T10:16:00+08:00,22.5,2026-07-02T05:25:00+08:00
臺灣大學,A0A010,臺北市,大安區,17.0,25.014278,121.539416,2026-07-02T10:00:00+08:00,晴,33.2,57,1010.2,0.0,1.1,70.0,34.4,2026-07-02T10:31:00+08:00,25.7,2026-07-02T04:34:00+08:00
文化大學,A0A460,臺北市,士林區,424.4,25.136050,121.539870,2026-07-02T10:00:00+08:00,晴,29.9,76,964.5,0.0,1.6,230.0,30.3,2026-07-02T09:45:00+08:00,24.9,2026-07-02T04:53:00+08:00
武陵,A0F010,臺中市,和平區,1804.0,24.352825,121.308286,2026-07-02T10:00:00+08:00,晴,25.6,53,826.3,0.0,1.8,90.0,26.3,2026-07-02T10:25:00+08:00,13.0,2026-07-02T05:19:00+08:00
彰師大,A0G720,彰化縣,彰化市,37.0,24.081389,120.556667,2026-07-02T10:00:00+08:00,晴,31.8,75,1007.0,0.0,1.1,350.0,32.3,2026-07-02T09:10:00+08:00,27.8,2026-07-02T02:12:00+08:00
麥寮,A0K420,雲林縣,麥寮鄉,22.0,23.798783,120.217717,2026-07-02T10:00:00+08:00,晴,29.9,80,1008.7,0.0,1.7,360.0,32.5,2026-07-02T08:05:00+08:00,28.0,2026-07-02T05:28:00+08:00
吉貝,A0W080,澎湖縣,白沙鄉,3.0,23.740011,119.604189,2026-07-02T10:00:00+08:00,多雲,-99,-99,-99,-99,-99,-99,-99,-99,-99,-99
合歡山,A0Z080,花蓮縣,秀林鄉,3171.0,24.143186,121.284231,2026-07-02T10:00:00+08:00,晴,19.5,51,704.1,0.0,2.5,80.0,20.7,2026-07-02T08:29:00+08:00,7.1,2026-07-02T04:06:00+08:00
農工中心,A2C560,桃園市,中壢區,121.0,24.985917,121.239833,2026-07-02T10:00:00+08:00,晴,30.2,74,999.2,0.0,0.5,340.0,31.0,2026-07-02T10:14:00+08:00,26.6,2026-07-02T02:25:00+08:00
水試臺西試驗場,A2K360,雲林縣,臺西鄉,1.0,23.717231,120.190522,2026-07-02T10:00:00+08:00,晴,-99,-99,1011.6,0.0,2.2,320.0,-99,-99,-99,-99
古坑(花卉中心),A2K570,雲林縣,古坑鄉,90.0,23.633530,120.552390,2026-07-02T10:00:00+08:00,多雲,32.0,73,1001.3,0.0,1.2,260.0,33.3,2026-07-02T10:53:00+08:00,25.6,2026-07-02T02:56:00+08:00
雲林臺大,A2K630,雲林縣,虎尾鎮,45.0,23.730628,120.423903,2026-07-02T10:00:00+08:00,晴,31.8,69,1008.4,0.0,1.5,270.0,33.5,2026-07-02T10:39:00+08:00,26.5,2026-07-02T02:53:00+08:00
蘭花園區,A2N290,臺南市,後壁區,23.0,23.340258,120.379661,2026-07-02T10:00:00+08:00,多雲,30.9,79,1008.9,0.0,1.2,260.0,33.2,2026-07-02T10:39:00+08:00,25.8,2026-07-02T04:22:00+08:00
畜試北區分所,B2E890,苗栗縣,西湖鄉,90.0,24.527806,120.770972,2026-07-02T10:00:00+08:00,陰,29.5,84,1003.0,0.0,2.1,330.0,31.8,2026-07-02T10:50:00+08:00,25.3,2026-07-02T02:13:00+08:00
畜試所,B2N890,臺南市,新化區,31.0,23.058972,120.336406,2026-07-02T10:00:00+08:00,晴,30.9,75,1007.9,0.0,1.3,280.0,32.8,2026-07-02T09:48:00+08:00,25.1,2026-07-02T05:17:00+08:00
畜試南區分所,B2Q810,屏東縣,恆春鎮,20.0,21.945583,120.802167,2026-07-02T10:00:00+08:00,多雲,29.1,84,1010.6,7.0,3.9,140.0,30.9,2026-07-02T09:30:00+08:00,25.1,2026-07-02T04:50:00+08:00
畜試東區分所,B2U990,宜蘭縣,五結鄉,10.0,24.669039,121.832561,2026-07-02T10:00:00+08:00,晴,30.8,75,1010.6,0.0,2.3,60.0,32.6,2026-07-02T10:39:00+08:00,25.3,2026-07-02T04:07:00+08:00
梧棲,C0FA30,臺中市,梧棲區,31.7,24.256003,120.523381,2026-07-02T10:00:00+08:00,晴,29.4,86,1007.5,0.0,3.4,330.0,29.9,2026-07-02T10:22:00+08:00,27.9,2026-07-02T04:24:00+08:00
四堵,C2A540,新北市,坪林區,401.0,24.892600,121.745736,2026-07-02T10:00:00+08:00,晴,32.3,64,967.8,0.0,0.4,260.0,33.5,2026-07-02T10:19:00+08:00,21.5,2026-07-02T05:21:00+08:00
福山,C2A560,新北市,烏來區,405.0,24.776203,121.502811,2026-07-02T10:00:00+08:00,晴,32.9,60,965.8,0.0,0.6,300.0,33.9,2026-07-02T10:28:00+08:00,21.3,2026-07-02T04:57:00+08:00
火燒寮,C2A650,新北市,平溪區,287.0,25.002719,121.742892,2026-07-02T10:00:00+08:00,晴,31.8,70,980.8,0.0,0.9,30.0,32.4,2026-07-02T10:46:00+08:00,21.3,2026-07-02T05:03:00+08:00
瑞芳,C2A660,新北市,瑞芳區,97.0,25.113169,121.801147,2026-07-02T10:00:00+08:00,晴,31.4,75,1000.5,0.0,0.9,20.0,32.3,2026-07-02T10:50:00+08:00,24.1,2026-07-02T04:57:00+08:00
福隆,C2A880,新北市,貢寮區,6.0,25.017842,121.942083,2026-07-02T10:00:00+08:00,多雲,32.3,69,1009.3,0.0,1.7,130.0,33.0,2026-07-02T10:09:00+08:00,24.9,2026-07-02T04:17:00+08:00
富貴角,C2A920,新北市,石門區,196.0,25.263783,121.565258,2026-07-02T10:00:00+08:00,晴,29.6,76,989.6,0.0,2.2,300.0,30.8,2026-07-02T10:45:00+08:00,25.3,2026-07-02T05:22:00+08:00
中八仙,C2AA10,臺北市,北投區,16.0,25.115760,121.491990,2026-07-02T10:00:00+08:00,晴,31.5,77,1011.3,0.0,2.8,330.0,32.0,2026-07-02T10:44:00+08:00,24.1,2026-07-02T04:57:00+08:00
信賢,C2AK30,新北市,烏來區,356.0,24.841080,121.534920,2026-07-02T10:00:00+08:00,晴,30.3,69,973.3,0.0,2.5,80.0,31.3,2026-07-02T10:49:00+08:00,22.4,2026-07-02T05:20:00+08:00
漁光,C2AK40,新北市,坪林區,723.0,24.968750,121.721320,2026-07-02T10:00:00+08:00,晴,28.8,76,933.6,0.0,1.8,260.0,30.2,2026-07-02T07:19:00+08:00,23.7,2026-07-02T01:21:00+08:00
中央大學,C2C410,桃園市,中壢區,129.0,24.967652,121.185165,2026-07-02T10:00:00+08:00,晴,30.2,76,997.2,0.0,1.3,300.0,31.2,2026-07-02T10:53:00+08:00,26.0,2026-07-02T05:31:00+08:00
桃園,C2C480,桃園市,桃園區,105.0,24.992425,121.323172,2026-07-02T10:00:00+08:00,晴,32.2,67,1000.7,0.0,1.0,320.0,35.0,2026-07-02T10:49:00+08:00,27.3,2026-07-02T05:35:00+08:00
觀音,C2C590,桃園市,觀音區,72.0,25.027072,121.153317,2026-07-02T10:00:00+08:00,晴,30.9,78,1003.6,0.0,1.7,330.0,32.4,2026-07-02T10:42:00+08:00,25.1,2026-07-02T05:11:00+08:00
八德蔬果,C2C810,桃園市,八德區,123.0,24.978580,121.281870,2026-07-02T10:00:00+08:00,晴,31.6,73,999.8,0.0,1.1,320.0,32.9,2026-07-02T10:34:00+08:00,26.4,2026-07-02T01:23:00+08:00
中德,C2C830,桃園市,桃園區,117.0,24.981862,121.291344,2026-07-02T10:00:00+08:00,晴,30.6,74,999.4,0.0,2.7,320.0,32.1,2026-07-02T10:28:00+08:00,26.9,2026-07-02T03:35:00+08:00
峨眉,C2D430,新竹縣,峨眉鄉,87.0,24.690500,121.017189,2026-07-02T10:00:00+08:00,多雲,30.5,79,1001.4,0.0,0.3,150.0,30.8,2026-07-02T10:53:00+08:00,24.1,2026-07-02T04:38:00+08:00
打鐵坑,C2D480,新竹縣,新埔鎮,223.0,24.849664,121.150789,2026-07-02T10:00:00+08:00,多雲,29.9,75,986.6,0.0,0.8,150.0,30.4,2026-07-02T09:54:00+08:00,24.3,2026-07-02T04:19:00+08:00
關西工作站,C2D720,新竹縣,關西鎮,164.0,24.757275,121.184792,2026-07-02T10:00:00+08:00,多雲,30.8,69,992.7,0.0,0.4,260.0,33.1,2026-07-02T10:41:00+08:00,22.6,2026-07-02T04:49:00+08:00
寶山農場,C2D730,新竹縣,寶山鄉,78.0,24.732444,120.976153,2026-07-02T10:00:00+08:00,多雲,31.7,74,1002.4,0.0,0.5,170.0,31.8,2026-07-02T10:17:00+08:00,24.7,2026-07-02T05:11:00+08:00
巨埔,C2D770,新竹縣,新埔鎮,101.0,24.844350,121.114420,2026-07-02T10:00:00+08:00,多雲,31.2,74,1000.7,0.0,1.7,300.0,32.1,2026-07-02T10:42:00+08:00,24.6,2026-07-02T05:06:00+08:00
石鹿,C2D790,新竹縣,五峰鄉,1785.0,24.565510,121.158410,2026-07-02T10:00:00+08:00,晴,23.4,81,828.7,0.0,1.4,140.0,24.2,2026-07-02T09:40:00+08:00,18.8,2026-07-02T00:19:00+08:00
竹南,C2E420,苗栗縣,竹南鎮,19.0,24.708980,120.888970,2026-07-02T10:00:00+08:00,多雲,30.1,77,1008.1,0.0,1.7,20.0,30.8,2026-07-02T10:37:00+08:00,26.2,2026-07-02T05:20:00+08:00
南庄,C2E430,苗栗縣,南庄鄉,258.0,24.601775,121.000214,2026-07-02T10:00:00+08:00,多雲,27.8,89,986.9,0.0,0.6,20.0,30.0,2026-07-02T10:49:00+08:00,22.6,2026-07-02T05:08:00+08:00
大湖,C2E520,苗栗縣,大湖鄉,320.0,24.414939,120.870872,2026-07-02T10:00:00+08:00,多雲,30.3,74,977.0,0.0,0.3,270.0,31.1,2026-07-02T09:29:00+08:00,22.6,2026-07-02T04:23:00+08:00
龍溪,C2E540,苗栗縣,後龍鎮,32.0,24.606489,120.783933,2026-07-02T10:00:00+08:00,陰,29.2,85,1009.0,0.0,0.6,330.0,31.5,2026-07-02T10:40:00+08:00,24.8,2026-07-02T05:09:00+08:00
